time_stamp,nav_roll,nav_pitch,nav_bearing,target_bearing,wp_dist,alt_error,airspeed,groundspeed,throttle,climb,heading,GPS_status,Gyro_status,Accel_status,Baro_status,PreArm_error,chan1_raw,chan2_raw,chan3_raw,chan4_raw,satellites_visible,MODE,roll,pitch,yaw,rollspeed,pitchspeed,yawspeed,lat,lon,relative_alt
17:44:39,-4.007759707747027e-05,0.00030160456662997603,1.0,0.0,0.0,0.0358065702021122,0.0,0.02138870395720005,0.0,-0.018157724291086197,1.0,1.0,1.0,1.0,1.0,0.0,1500.0,1500.0,1000.0,1500.0,10.0,STABILIZE,-7.154959166655317e-05,0.0015736459754407406,0.027925148606300354,0.00029531371546909213,0.00023677648277953267,0.0024492498487234116,-35.3632621,149.1652374,0.0
17:44:41,-4.0077506128000095e-05,0.0003016041300725192,1.0,0.0,0.0,0.020881136879324913,0.0,0.026778274215757847,0.0,-0.004342044820077717,1.0,1.0,1.0,1.0,1.0,0.0,1500.0,1500.0,1000.0,1500.0,10.0,STABILIZE,-0.0005062281270511448,0.001198739162646234,0.026341525837779045,0.0002515885862521827,0.00023222126765176654,0.0021042118314653635,-35.3632622,149.1652375,0.0
17:44:42,-4.0077495214063674e-05,0.00030160389724187553,1.0,0.0,0.0,0.014964241534471512,0.0,0.022802252943317097,0.0,-9.505318303126842e-05,1.0,1.0,1.0,1.0,1.0,0.0,1500.0,1500.0,1000.0,1500.0,10.0,STABILIZE,-0.000694615941029042,0.0010695348028093576,0.025972316041588783,0.0002704826765693724,0.00018284341786056757,0.0021373997442424297,-35.3632622,149.1652375,0.0
17:44:43,-4.007749885204248e-05,0.00030160389724187553,1.0,0.0,0.0,0.01170910568907857,0.0,0.020384584553539753,0.0,0.0023343025823123753,1.0,1.0,1.0,1.0,1.0,0.0,1500.0,1500.0,1000.0,1500.0,10.0,STABILIZE,-0.0007574264309369028,0.0009429157362319529,0.025432627648115158,0.00016092043370008469,0.00029972585616633296,0.0020028050057590008,-35.36326215,149.1652375,0.0
17:44:46,-4.007764255220536e-05,0.0003016045084223151,1.0,0.0,0.0,-0.004060345352627337,0.0,0.01410618145018816,0.0,0.021298845298588276,1.0,1.0,1.0,1.0,1.0,0.0,1500.0,1500.0,1000.0,1500.0,10.0,STABILIZE,-0.000854562473250553,0.0009333135967608541,0.024386865086853504,0.00032068899599835277,0.00020734855206683278,0.0018682994414120913,-35.3632621,149.1652374,3.5
17:44:49,-4.007785173598677e-05,0.0003016056725755334,1.0,0.0,0.0,-0.01605413667857647,0.0,0.022407211363315582,0.0,0.01124874223023653,1.0,1.0,1.0,1.0,1.0,0.0,1500.0,1500.0,1000.0,1500.0,10.0,STABILIZE,-0.0007863706559874117,0.0009967847727239132,0.023360684514045715,0.00029827404068782926,0.00027548050275072455,0.0017080134712159634,-35.3632622,149.1652375,16.0
17:44:50,-4.007789175375365e-05,0.0003016057307831943,1.0,0.0,0.0,-0.015820162370800972,0.0,0.022750232368707657,0.0,0.009771708399057388,1.0,1.0,1.0,1.0,1.0,0.0,1500.0,1500.0,1000.0,1500.0,10.0,STABILIZE,-0.0006600282795261592,0.0009965524077415466,0.023121881298720837,0.0003463147731963545,0.0002457240188959986,0.0016483093495480716,-35.3632622,149.1652375,15.5
17:44:53,-4.0078168240142986e-05,0.00030160673486534506,1.0,66.5,0.0,-0.006160740274935961,0.0,0.022092675790190697,0.0,0.0022087383549660444,1.0,1.0,1.0,1.0,1.0,0.0,1500.0,1500.0,1000.0,1500.0,10.0,AUTO,-0.0008395112818107009,0.0009750364988576621,0.02229297813028097,0.00025696889497339725,0.0001507261476945132,0.001601916505023837,-35.3632622,149.1652375,6.5
17:44:54,-4.007822099083569e-05,0.00030160699679981917,1.0,132.75,0.0,0.0,0.0,0.013214164995588362,0.0,0.0016294960514642298,1.0,1.0,1.0,1.0,1.0,0.0,1500.0,1500.0,1000.0,1500.0,10.0,AUTO,-0.000873458047863096,0.0010036393796326593,0.02206720830872655,0.00025309037300758064,0.00025290422490797937,0.0015754717169329524,-35.363262125,149.1652375,1.0
17:44:55,-4.0078270103549585e-05,0.0003016072732862085,1.0,133.0,0.0,0.0,0.0,0.002719083451665938,0.0,0.0006632788572460413,1.0,1.0,1.0,1.0,1.0,0.0,1500.0,1500.0,1000.0,1500.0,10.0,AUTO,-0.0007271318172570318,0.001191493938677013,0.021839654073119164,0.0002525695599615574,0.0002934727817773819,0.001513449416961521,-35.3632621,149.1652375,0.5
17:44:56,0.010374643665272743,0.007267531720572151,1.0,133.0,0.0,0.014048494471353479,0.0,0.002320793137187138,4.5,-0.00043880605426238617,1.0,1.0,1.0,1.0,1.0,0.0,1500.0,1500.0,1000.0,1500.0,10.0,AUTO,-0.000517264474183321,0.0014629321231041104,0.021599416621029377,0.00028400018345564604,0.0002650909882504493,0.0015193326398730278,-35.3632621,149.1652375,0.0
17:44:57,-1.2314152214676142,0.7023635637015104,1.0,157.0,0.0,0.26751356571912766,0.026000000536441803,0.11144952662289143,40.0,0.15471625281497836,178.5,1.0,1.0,1.0,1.0,0.0,1500.0,1500.0,1000.0,1500.0,10.0,AUTO,0.04628313676948892,-0.04436836770037189,-0.019542332738637924,0.167853399325395,-0.19963363505667076,-0.3386028567329049,-35.36326205,149.16523755,26.0
17:44:58,-9.658881902694702,10.126142740249634,-12.5,209.5,0.0,0.2518267147243023,0.6152500361204147,0.6434587985277176,67.0,0.4316553622484207,323.25,1.0,1.0,1.0,1.0,0.0,1500.0,1500.0,1000.0,1500.0,10.0,AUTO,0.05373157048597932,-0.0841358732432127,-0.6343759968876839,-0.2547372505068779,0.007242131046950817,-0.8736178427934647,-35.363259424999995,149.1652397,309.25
17:44:59,-10.871250629425049,8.31245470046997,-55.0,190.5,0.0,1.9912719380954513e-05,0.4805000275373459,0.4375338554382324,60.0,0.4546211212873459,278.5,1.0,1.0,1.0,1.0,0.0,1500.0,1500.0,1000.0,1500.0,10.0,AUTO,-0.06665861792862415,-0.05325554683804512,-1.4178441762924194,-0.09676682204008102,0.05629230849444866,-0.7208805978298187,-35.36325585,149.1652393,749.5
17:45:00,-6.730693101882935,3.6074676513671875,-92.75,161.25,0.0,-0.0003631973286246648,0.4905000180006027,0.5354850441217422,59.25,0.4568149521946907,239.75,1.0,1.0,1.0,1.0,0.0,1500.0,1500.0,1000.0,1500.0,10.0,AUTO,-0.05620065610855818,-0.04411707725375891,-2.086573511362076,0.014444399625062943,0.052123406901955605,-0.604186624288559,-35.363257475000005,149.165236025,1222.25
17:45:01,-3.2253472805023193,1.7601019740104675,-124.0,102.5,0.0,-0.0004875946033280343,0.4725000262260437,0.4337279498577118,59.0,0.466722771525383,208.0,1.0,1.0,1.0,1.0,0.0,1500.0,1500.0,1000.0,1500.0,10.0,AUTO,-0.026440195739269257,-0.021184148266911507,-2.639491319656372,-0.0009335102513432503,0.038005806505680084,-0.5080357789993286,-35.363261550000004,149.16523469999998,1698.0
17:45:02,-1.4163135588169098,1.3477582335472107,-150.75,43.75,0.0,-0.0011767578071157914,0.27400001510977745,0.23556233942508698,59.0,0.4696361571550369,181.5,1.0,1.0,1.0,1.0,0.0,1500.0,1500.0,1000.0,1500.0,10.0,AUTO,-0.014126979280263186,-0.001490353504777886,0.03540158271789551,0.004959712503477931,0.020753485383465886,-0.42116668820381165,-35.36326445,149.165235175,2181.25
17:45:03,-0.8083274960517883,1.202277660369873,6.5,20.0,0.0,-9.963990305550396e-05,0.1380000077188015,0.12825985625386238,59.0,0.46476301550865173,159.5,1.0,1.0,1.0,1.0,0.0,1500.0,1500.0,1000.0,1500.0,10.0,AUTO,-0.012657660525292158,0.006508425110951066,2.789291262626648,0.019008564500836655,0.007833270356059074,-0.3391250967979431,-35.3632654,149.1652363,2664.0
17:45:04,-0.5581285357475281,1.0158828347921371,168.0,6.75,0.0,-0.0005305480844981503,0.09750000387430191,0.11382425762712955,59.0,0.45547622442245483,141.25,1.0,1.0,1.0,1.0,0.0,1500.0,1500.0,1000.0,1500.0,10.0,AUTO,-0.01187314954586327,0.008129485882818699,2.475065588951111,-0.012070550001226366,0.0029849436978111044,-0.26415322348475456,-35.3632653,149.165237225,3140.5
17:45:05,-0.4096631109714508,0.7829749882221222,155.0,177.0,0.0,-0.0003204345703125,0.09800000488758087,0.11166764795780182,59.0,0.4518755227327347,128.0,1.0,1.0,1.0,1.0,0.0,1500.0,1500.0,1000.0,1500.0,10.0,AUTO,-0.009263579733669758,0.007174010155722499,2.2474215030670166,0.05237152799963951,-3.66938766092062e-05,-0.19254619628190994,-35.363264599999994,149.16523775000002,3609.0
17:45:06,-0.2813676595687866,0.5738026052713394,146.0,349.0,0.0,0.0008039855820243247,0.08750000223517418,0.09631795063614845,59.75,0.444934606552124,119.0,1.0,1.0,1.0,1.0,0.0,1500.0,1500.0,1000.0,1500.0,10.0,AUTO,-0.007533322903327644,0.0056216781958937645,2.086651384830475,-0.00873335322830826,0.0001944401446962729,-0.12275413237512112,-35.363263825000004,149.165238,4069.5
17:45:07,-0.14783097058534622,0.41380898654460907,140.5,338.5,0.0,0.00032638549600960687,0.07050000131130219,0.07582856342196465,60.0,0.43909594416618347,114.0,1.0,1.0,1.0,1.0,0.0,1500.0,1500.0,1000.0,1500.0,10.0,AUTO,-0.004336913931183517,0.004894870799034834,1.9975525736808777,0.015389922074973583,0.0007363002223428339,-0.0574987567961216,-35.363263200000006,149.165238,4525.5
17:45:08,-0.005160519707715139,0.27235017716884613,139.0,317.25,0.0,0.00019592285025282763,0.04800000134855509,0.055317653343081474,60.0,0.43586213886737823,112.0,1.0,1.0,1.0,1.0,0.0,1500.0,1500.0,1000.0,1500.0,10.0,AUTO,-0.002148537983885035,0.004153978195972741,1.9688531756401062,0.011901685269549489,9.27994551602751e-06,0.004550551297143102,-35.363262750000004,149.1652381,4975.25
17:45:09,0.07262767478823662,0.2357095628976822,139.0,272.5,0.0,-0.00015502929454669356,0.032500000670552254,0.0424198042601347,60.0,0.42888835072517395,114.0,1.0,1.0,1.0,1.0,0.0,1500.0,1500.0,1000.0,1500.0,10.0,AUTO,-0.0008368408016394824,0.0039351050509139895,1.9944244027137756,-0.045315231662243605,0.0007152807665988803,0.04186573624610901,-35.363262399999996,149.16523805,5421.5
17:45:10,0.1724327951669693,0.15781787782907486,139.0,226.75,0.0,-0.0003108215460088104,0.01950000086799264,0.0363368708640337,60.0,0.43626298755407333,116.25,1.0,1.0,1.0,1.0,0.0,1500.0,1500.0,1000.0,1500.0,10.0,AUTO,0.0008294525323435664,0.003476605052128434,2.0392741560935974,0.03049173206090927,-0.00015852048090891913,0.049514598213136196,-35.36326222500001,149.165238,5867.0
17:45:11,0.1699979081749916,0.1689230054616928,139.0,211.5,0.0,-0.0018170165130868554,0.011500000488013029,0.034785518422722816,60.0,0.4243892580270767,119.0,1.0,1.0,1.0,1.0,0.0,1500.0,1500.0,1000.0,1500.0,10.0,AUTO,0.00043747725430876017,0.0036389781162142754,2.0849668979644775,-0.11114927753806114,0.0019145876867696643,0.04674013517796993,-35.36326215,149.165238,6311.5
17:45:12,0.1724076308310032,0.15044142678380013,139.0,204.25,0.0,-0.0012123107735533267,0.00900000031106174,0.03772700857371092,60.0,0.4376172870397568,121.25,1.0,1.0,1.0,1.0,0.0,1500.0,1500.0,1000.0,1500.0,10.0,AUTO,0.002034589706454426,0.0033120671869255602,2.126058280467987,0.04012983199208975,-9.355045040138066e-05,0.0388011010363698,-35.3632621,149.165237975,6755.25
17:45:13,0.18078434467315674,0.14274372160434723,139.0,199.5,0.0,-0.0016308593330904841,0.007000000216066837,0.03749275207519531,59.5,0.4365173727273941,123.5,1.0,1.0,1.0,1.0,0.0,1500.0,1500.0,1000.0,1500.0,10.0,AUTO,0.0009786543669179082,0.003024802077561617,2.1608134508132935,-0.10909967869520187,0.0014288510428741574,0.033454026095569134,-35.363262,149.1652379,7204.0
17:45:14,0.2050919532775879,0.11926935613155365,139.0,197.0,0.0,-0.0008158874297805596,0.01025000074878335,0.04173486400395632,59.0,0.4489102065563202,125.0,1.0,1.0,1.0,1.0,0.0,1500.0,1500.0,1000.0,1500.0,10.0,AUTO,0.0022763336837670067,0.0027056523831561208,2.1905189156532288,-0.0009996704757213593,4.545356205198914e-05,0.028323380276560783,-35.363262,149.1652379,7654.25
17:45:15,0.20311012864112854,0.0849117636680603,139.0,193.5,0.0,-0.0008639526058686897,0.004500000039115548,0.04424971714615822,59.0,0.44230711460113525,126.5,1.0,1.0,1.0,1.0,0.0,1500.0,1500.0,1000.0,1500.0,10.0,AUTO,0.004369754227809608,0.0019891695701517165,2.215827226638794,0.026468454860150814,0.001140390319051221,0.024214550852775574,-35.3632619,149.1652379,8103.5
17:45:16,0.2274055890738964,0.07327371090650558,139.0,193.75,0.0,-0.00040130614706868073,0.004500000271946192,0.04762441758066416,60.0,0.44424479454755783,127.75,1.0,1.0,1.0,1.0,0.0,1500.0,1500.0,1000.0,1500.0,10.0,AUTO,0.0030906197789590806,0.0018145268259104341,2.2378733158111572,-0.016104991547763348,0.0005403074756031856,0.02038619527593255,-35.3632619,149.1652379,8550.5
17:45:17,0.2587730437517166,0.07846315205097198,139.0,196.0,0.0,-0.0011788939737016335,0.003000000142492354,0.04818305931985378,59.5,0.4427065998315811,128.5,1.0,1.0,1.0,1.0,0.0,1500.0,1500.0,1000.0,1500.0,10.0,AUTO,0.005914015229791403,0.0020551966154016554,2.2570815086364746,0.08730470389127731,0.0009318870434071869,0.017930038273334503,-35.3632619,149.16523795,8997.5
17:45:18,0.25211426243185997,0.08207378350198269,139.0,196.75,0.0,-0.00081878662967938,0.012250000494532287,0.04974275641143322,60.0,0.4388778358697891,129.75,1.0,1.0,1.0,1.0,0.0,1500.0,1500.0,1000.0,1500.0,10.0,AUTO,0.004197899193968624,0.002175300323870033,2.2739007472991943,-0.022479894571006298,0.001000961390673183,0.015277144964784384,-35.3632619,149.165237975,9443.5
17:45:19,0.261649526655674,0.0952255167067051,139.0,194.5,0.0,-0.0014270019019022584,0.022000000812113285,0.04390758275985718,60.0,0.43693840503692627,130.5,1.0,1.0,1.0,1.0,0.0,1500.0,1500.0,1000.0,1500.0,10.0,AUTO,0.006387432338669896,0.0022389519726857543,2.287791609764099,0.11797651648521423,0.0009137020679190755,0.013691745232790709,-35.3632619,149.1652379,9887.5
17:45:20,0.21437868103384972,0.11166766285896301,139.0,186.75,0.0,-0.0010226440244878177,0.02500000037252903,0.036007110029459,60.0,0.43616122752428055,131.0,1.0,1.0,1.0,1.0,0.0,1500.0,1500.0,1000.0,1500.0,10.0,AUTO,0.002400548737568897,0.002416756411548704,2.299649953842163,-0.053449549624929205,-0.0006073063996154815,0.012749204179272056,-35.36326197499999,149.165237825,10333.0
17:45:21,0.18000875413417816,0.11235042288899422,139.0,163.5,0.0,-2.8686525183729827e-05,0.022000000812113285,0.027385646477341652,60.0,0.44382549822330475,132.0,1.0,1.0,1.0,1.0,0.0,1500.0,1500.0,1000.0,1500.0,10.0,AUTO,0.0035743449116125703,0.0022113912273198366,2.3099595308303833,0.14408274739980698,0.0008059252286329865,0.011460027191787958,-35.3632621,149.1652377,10779.0
17:45:22,0.11459196731448174,0.1062492523342371,139.0,134.75,0.0,-0.00048675537982489914,0.021750001702457666,0.021699510980397463,60.0,0.43284618109464645,132.25,1.0,1.0,1.0,1.0,0.0,1500.0,1500.0,1000.0,1500.0,10.0,AUTO,0.0018882043441408314,0.0020310555992182344,2.319335460662842,-0.03671242389827967,-0.0005888627783861011,0.010417558252811432,-35.3632622,149.1652376,11223.0
17:45:23,0.033741612278390676,0.11829240992665291,139.0,104.0,0.0,-7.995606574695557e-05,0.017000000923871994,0.020037656649947166,60.0,0.4423838406801224,133.0,1.0,1.0,1.0,1.0,0.0,1500.0,1500.0,1000.0,1500.0,10.0,AUTO,-0.00014821643708273768,0.001974482845980674,2.327602744102478,0.045965228229761124,0.0014467351720668375,0.008302721194922924,-35.3632623,149.1652375,11668.0
17:45:24,-0.024102040566504,0.13824918866157532,139.0,83.75,0.0,-0.00089538572501624,0.005750000360421836,0.022681479807943106,60.0,0.43687964230775833,133.0,1.0,1.0,1.0,1.0,0.0,1500.0,1500.0,1000.0,1500.0,10.0,AUTO,-9.899435099214315e-06,0.002294171485118568,2.3347086906433105,-0.014949616976082325,0.001192867523059249,0.006587246200069785,-35.3632624,149.1652375,12114.75
17:45:25,-0.045340606942772865,0.1533137932419777,139.0,77.5,0.0,-0.0005902099364902824,0.003000000142492354,0.02612573653459549,60.0,0.43546272814273834,134.0,1.0,1.0,1.0,1.0,0.0,1500.0,1500.0,1000.0,1500.0,10.0,AUTO,-0.0004718276140920352,0.002534370170906186,2.341495990753174,-0.021694671362638474,-0.0002436208596918732,0.00637527578510344,-35.3632624,149.16523745,12584.5
17:45:26,-0.053745062090456486,0.15219170227646828,139.0,78.0,0.0,-0.00022094723954069195,0.0032500000670552254,0.027798897121101618,60.0,0.4339849203824997,134.0,1.0,1.0,1.0,1.0,0.0,1500.0,1500.0,1000.0,1500.0,10.0,AUTO,-0.00046031423335080035,0.0025241272523999214,2.3476192951202393,0.021034012752352282,0.0006159704789752141,0.005264475534204394,-35.3632624,149.1652375,13053.5
17:45:27,-0.03966737166047096,0.1473911926150322,139.0,82.0,0.0,0.0005371093502617441,0.008500000229105353,0.02870624791830778,60.0,0.43020951747894287,134.0,1.0,1.0,1.0,1.0,0.0,1500.0,1500.0,1000.0,1500.0,10.0,AUTO,-0.0026286638458259404,0.0024836924858391285,2.353208065032959,-0.14900675415992737,-0.0004250620258972049,0.006545345997437835,-35.3632624,149.1652375,13501.5
17:45:28,-0.01595772453583777,0.12473167106509209,139.0,94.25,0.0,0.0003369140595168574,0.021000000648200512,0.026727328076958656,60.0,0.43590231239795685,135.0,1.0,1.0,1.0,1.0,0.0,1500.0,1500.0,1000.0,1500.0,10.0,AUTO,-0.0011290338788967347,0.0021142911864444613,2.35830157995224,0.04212786350399256,-0.0003904006298398599,0.0045283184153959155,-35.363262375000005,149.1652375,13946.75
17:45:29,-0.021768734324723482,0.07637645676732063,139.0,123.0,0.0,0.00018432617071084678,0.027500000782310963,0.021615559235215187,60.0,0.4306608587503433,135.0,1.0,1.0,1.0,1.0,0.0,1500.0,1500.0,1000.0,1500.0,10.0,AUTO,0.0014255315763875842,0.0012827988830395043,2.3626251220703125,0.07390462793409824,-0.00032272556563839316,0.004842001479119062,-35.363262250000005,149.1652375,14370.5
17:45:30,0.010830681363586336,0.06511524599045515,139.0,153.25,0.0,0.00021057128833490424,0.02650000061839819,0.019577284809201956,60.0,0.4291185662150383,135.0,1.0,1.0,1.0,1.0,0.0,1500.0,1500.0,1000.0,1500.0,10.0,AUTO,-0.0002881197433453053,0.0010473571746842936,2.366829812526703,-0.03841295279562473,0.00026944244746118784,0.0064263667445629835,-35.363262175,149.16523755,14794.25
17:45:31,0.10564245283603668,0.07708324491977692,139.0,177.5,0.0,-6.896972854519845e-05,0.01900000125169754,0.024464478716254234,60.0,0.4336456060409546,135.0,1.0,1.0,1.0,1.0,0.0,1500.0,1500.0,1000.0,1500.0,10.0,AUTO,0.0023355052690021694,0.0013991419109515846,2.371108889579773,0.024546723812818527,0.0013562950771301985,0.006314317928627133,-35.3632621,149.1652377,15263.5
17:45:32,0.14239463955163956,0.09197608195245266,139.0,190.5,0.0,0.00033569334118510596,0.015250000637024641,0.032286099158227444,59.75,0.44399091601371765,136.0,1.0,1.0,1.0,1.0,0.0,1500.0,1500.0,1000.0,1500.0,10.0,AUTO,0.0022511682473123074,0.0016506885585840791,2.375428795814514,0.02706350851804018,0.0006980608741287142,0.0065117484191432595,-35.363262,149.1652378,15738.0
17:45:33,0.17725887894630432,0.09571607038378716,139.0,197.5,0.0,-0.0010784912155941129,0.006500000366941094,0.0378105528652668,60.0,0.4408830255270004,136.0,1.0,1.0,1.0,1.0,0.0,1500.0,1500.0,1000.0,1500.0,10.0,AUTO,0.0043550500413402915,0.0017133279470726848,2.3790701627731323,0.06888840720057487,-0.0017106521991081536,0.004752937471494079,-35.363262,149.1652379,16169.0
17:45:34,0.19407393038272858,0.1195410005748272,139.0,202.0,0.0,-0.0008953857263804821,0.0032500001252628863,0.042250446043908596,60.0,0.43766459822654724,136.0,1.0,1.0,1.0,1.0,0.0,1500.0,1500.0,1000.0,1500.0,10.0,AUTO,0.003076976485317573,0.002154591726139188,2.3824788331985474,-0.040490406565368176,0.0005653166736010462,0.0045245817746035755,-35.363262,149.165238,16596.0
17:45:35,0.2305125892162323,0.09997944161295891,139.0,201.0,0.0,-0.0007458496111212298,0.003000000026077032,0.04459056071937084,60.0,0.43790338933467865,136.0,1.0,1.0,1.0,1.0,0.0,1500.0,1500.0,1000.0,1500.0,10.0,AUTO,0.0045012354385107756,0.0018169980612583458,2.3860467672348022,0.06568956281989813,-0.0008964497246779501,0.0045264053624123335,-35.363262,149.165238,17066.5
17:45:36,0.3114970549941063,0.06293673347681761,139.0,198.75,0.0,-0.0009109497113968246,0.0007500000356230885,0.044830167666077614,60.0,0.4387145861983299,136.0,1.0,1.0,1.0,1.0,0.0,1500.0,1500.0,1000.0,1500.0,10.0,AUTO,0.003630493476521224,0.001247787120519206,2.3889734745025635,-0.025044109672307968,0.0006851733778603375,0.0037350550410337746,-35.3632619,149.165238,17536.75
17:45:37,0.25986748933792114,0.0642989557236433,139.0,198.0,0.0,-0.0011926268925890326,0.004000000189989805,0.050542108714580536,60.0,0.44355908036231995,136.5,1.0,1.0,1.0,1.0,0.0,1500.0,1500.0,1000.0,1500.0,10.0,AUTO,0.0034926918451674283,0.0012808374594897032,2.391417145729065,-0.02153819054365158,0.00028685404686257243,0.00319618615321815,-35.3632619,149.165238,17965.5
17:45:38,0.26181013882160187,0.07268157415091991,139.0,199.75,0.0,-0.00016479492478538305,0.005750000127591193,0.05376525968313217,60.0,0.44367899000644684,137.0,1.0,1.0,1.0,1.0,0.0,1500.0,1500.0,1000.0,1500.0,10.0,AUTO,0.004958055156748742,0.0013624940183945,2.3942267894744873,0.04445598181337118,0.0005918925744481385,0.004376030701678246,-35.3632619,149.165238,18393.0
17:45:39,0.20873671770095825,0.08465737476944923,139.0,201.5,0.0,-0.0002197265457652975,0.00800000037997961,0.06037008389830589,60.0,0.4436373710632324,137.0,1.0,1.0,1.0,1.0,0.0,1500.0,1500.0,1000.0,1500.0,10.0,AUTO,0.0036147464998066425,0.0015507146599702537,2.3968541622161865,-0.006888587027788162,0.0004369151429273188,0.001983698399271816,-35.3632619,149.165238,18865.5
17:45:40,0.2175968810915947,0.07834207080304623,139.0,203.5,0.0,-0.0009378051763633266,0.012250000378116965,0.06190588138997555,59.75,0.4474668651819229,137.0,1.0,1.0,1.0,1.0,0.0,1500.0,1500.0,1000.0,1500.0,10.0,AUTO,0.0038407343672588468,0.001514299277914688,2.39925080537796,-0.014481866732239723,-0.00036360738158691674,0.0028078536270186305,-35.3632619,149.165238,19338.0
17:45:41,0.28231538087129593,0.096012182533741,139.0,207.5,0.0,-0.0011669921805150807,0.008000000147148967,0.066331896930933,60.0,0.4539489895105362,137.0,1.0,1.0,1.0,1.0,0.0,1500.0,1500.0,1000.0,1500.0,10.0,AUTO,0.0056684419978410006,0.0018460677820257843,2.4013233184814453,0.1065699141472578,-0.0004816390573978424,0.002103954611811787,-35.3632619,149.1652381,19790.0
17:45:42,0.35735685378313065,0.11691518686711788,139.0,210.75,0.0,-0.000862121563841356,0.010000000591389835,0.06367419753223658,60.0,0.44429756700992584,137.0,1.0,1.0,1.0,1.0,0.0,1500.0,1500.0,1000.0,1500.0,10.0,AUTO,0.005674581858329475,0.002127219398971647,2.4031571745872498,-0.0355403758585453,-8.28974589239806e-05,0.003497563593555242,-35.3632618,149.1652382,20240.75
17:45:43,0.37314319610595703,0.12321855127811432,139.0,208.5,0.0,-0.0009570312104187906,0.026500001549720764,0.06026877649128437,60.0,0.45251351594924927,137.0,1.0,1.0,1.0,1.0,0.0,1500.0,1500.0,1000.0,1500.0,10.0,AUTO,0.006632785080000758,0.002250617020763457,2.4049350023269653,0.12536891177296638,-0.0004171582986600697,0.0018587242811918259,-35.3632618,149.16523815,20691.5
17:45:44,0.29947157949209213,0.12435921654105186,139.0,200.75,0.0,0.00047424316244359943,0.03725000098347664,0.04881053604185581,60.0,0.4411863163113594,137.0,1.0,1.0,1.0,1.0,0.0,1500.0,1500.0,1000.0,1500.0,10.0,AUTO,0.004677572927903384,0.0022056950256228447,2.406691610813141,-0.04034202825278044,-0.0004269855853635818,0.0037152039585635066,-35.363261924999996,149.16523794999998,21139.25
17:45:45,0.19035956263542175,0.14980322867631912,139.0,179.0,0.0,-0.0005847167340107262,0.02950000111013651,0.03838244639337063,60.0,0.4460788071155548,137.5,1.0,1.0,1.0,1.0,0.0,1500.0,1500.0,1000.0,1500.0,10.0,AUTO,0.0041620462434366345,0.002610412077046931,2.408475399017334,0.11709460616111755,-0.00046972237760201097,0.0022630763123743236,-35.36326205,149.1652378,21585.5
17:45:46,0.13385751843452454,0.13112113624811172,139.0,143.0,0.0,-0.0011907958833035082,0.01950000086799264,0.026316720992326736,60.0,0.4365850016474724,138.0,1.0,1.0,1.0,1.0,0.0,1500.0,1500.0,1000.0,1500.0,10.0,AUTO,0.0018098523796652444,0.0022550457215402275,2.410011053085327,-0.023924793116748333,-0.0008868174481904134,0.0033727354602888227,-35.3632622,149.16523765,22029.0
17:45:47,0.10644706338644028,0.11730489507317543,139.0,123.5,0.0,-0.0003173828008584678,0.01000000024214387,0.022576643154025078,60.0,0.4446641653776169,138.0,1.0,1.0,1.0,1.0,0.0,1500.0,1500.0,1000.0,1500.0,10.0,AUTO,0.0016433295677416027,0.0019880520994774997,2.4116073846817017,0.04984509339556098,0.00041593698551878333,0.0017235022969543934,-35.3632622,149.1652376,22475.5
17:45:48,0.033967514522373676,0.11184883676469326,139.0,118.25,0.0,0.0003851318215311039,0.0035000001080334187,0.021602615248411894,60.0,0.4378083348274231,138.0,1.0,1.0,1.0,1.0,0.0,1500.0,1500.0,1000.0,1500.0,10.0,AUTO,0.0007876023300923407,0.0019044102809857577,2.4130308628082275,-0.017284891568124294,-0.0002609385992400348,0.0011571471259230748,-35.3632622,149.1652375,22921.75
17:45:49,0.030408604070544243,0.09257180243730545,139.0,131.0,0.0,0.00016357417916879058,0.015000000596046448,0.023387398570775986,60.0,0.443991482257843,138.0,1.0,1.0,1.0,1.0,0.0,1500.0,1500.0,1000.0,1500.0,10.0,AUTO,0.00045534013770520687,0.0016641471884213388,2.414180040359497,0.07023878023028374,-0.0002352211158722639,0.0002263248316012323,-35.3632622,149.1652375,23369.0
17:45:50,0.016336283064447343,0.09695155173540115,139.0,144.25,0.0,0.0010461425554240122,0.017000000923871994,0.023502851370722055,60.0,0.4347439929842949,138.0,1.0,1.0,1.0,1.0,0.0,1500.0,1500.0,1000.0,1500.0,10.0,AUTO,0.0002780637296382338,0.0016567112470511347,2.415274679660797,-0.017969460925087333,0.00021976444986648858,0.0018885801691794768,-35.3632622,149.165237525,23815.75
17:45:51,0.0887792594730854,0.09651802480220795,139.0,163.0,0.0,0.0010998534562531859,0.015000000596046448,0.02599059697240591,60.0,0.4404314011335373,138.0,1.0,1.0,1.0,1.0,0.0,1500.0,1500.0,1000.0,1500.0,10.0,AUTO,0.00038775835128035396,0.001597331021912396,2.4162685871124268,0.04737443570047617,-0.001046326186042279,0.0013608119334094226,-35.3632622,149.1652376,24261.5
17:45:52,0.11765450984239578,0.1145078968256712,139.0,175.0,0.0,-0.0009521484025754035,0.0032500001543667167,0.025221052579581738,60.0,0.43504538387060165,138.0,1.0,1.0,1.0,1.0,0.0,1500.0,1500.0,1000.0,1500.0,10.0,AUTO,0.001684940621998976,0.0019394545233808458,2.417115807533264,0.0057999821729026735,0.0011187026684638113,0.0024597729498054832,-35.3632622,149.1652377,24709.5
17:45:53,0.7056591883301735,-0.3591875322163105,139.0,175.5,0.0,0.0008154296665452421,0.02450000192038715,0.054089246317744255,60.0,0.43444451689720154,139.5,1.0,1.0,1.0,1.0,0.0,1500.0,1500.0,1000.0,1500.0,10.0,AUTO,-0.004675929791119415,0.004786737612448633,2.442928910255432,-0.15267767757177353,-0.0107867238111794,0.01135088736191392,-35.3632621,149.1652377,25149.5
17:45:54,1.4156345427036285,-0.9064502269029617,139.0,182.0,0.0,0.00035949706216342747,0.05475000198930502,0.0526674366556108,60.0,0.44478604942560196,141.0,1.0,1.0,1.0,1.0,0.0,1500.0,1500.0,1000.0,1500.0,10.0,AUTO,0.0016494579031132162,-4.75617780466564e-05,2.4675029516220093,0.010504263918846846,-0.007252030074596405,-0.004326166061218828,-35.36326165,149.1652377,25595.0
17:45:55,1.2542974948883057,-0.7584959864616394,139.0,183.0,0.0,-0.0016308593330904841,0.014000000432133675,0.019601687788963318,60.0,0.440868079662323,141.0,1.0,1.0,1.0,1.0,0.0,1500.0,1500.0,1000.0,1500.0,10.0,AUTO,0.00952849444001913,-0.0030748110730201006,2.464287281036377,0.1916443556547165,-0.0019621860701590776,-0.002535287057980895,-35.3632615,149.1652378,25880.0
17:45:56,0.8355496764183045,-0.3308205395936966,139.0,188.6,0.0,-0.0008481445140205324,0.03500000238418579,0.05016241297125816,60.0,0.44186840057373045,140.8,1.0,1.0,1.0,1.0,0.0,1500.0,1500.0,1000.0,1500.0,10.0,AUTO,0.007539827562868595,-0.0013867938658222556,2.4613228321075438,0.02418870124965906,0.0021618355065584184,-0.0006062935572117567,-35.363261660000006,149.1652378,26444.0
17:45:57,0.462036669254303,-0.05756151955574751,139.0,192.0,0.0,-0.001970214827451855,0.045500002801418304,0.05245078168809414,60.0,0.43799516558647156,140.0,1.0,1.0,1.0,1.0,0.0,1500.0,1500.0,1000.0,1500.0,10.0,AUTO,0.008566937409341335,0.0009662870834290516,2.459097146987915,0.12751417979598045,0.002099418838042766,0.000537826941581443,-35.36326205,149.1652378,26950.5
17:45:58,0.25991009548306465,0.06393980979919434,139.0,107.25,0.0,-0.0009020996151321015,0.035500000696629286,0.036390483379364014,60.0,0.437505304813385,140.0,1.0,1.0,1.0,1.0,0.0,1500.0,1500.0,1000.0,1500.0,10.0,AUTO,0.0027680098719429225,0.002108682703692466,2.457226276397705,-0.0066309599205851555,0.00012899754801765084,0.0012756006472045556,-35.3632623,149.16523772500003,27397.5
17:45:59,0.1681808978319168,0.13949929177761078,139.0,44.5,0.0,-0.0007470702676073415,0.018500001169741154,0.023892163299024105,60.0,0.42615707218647003,140.0,1.0,1.0,1.0,1.0,0.0,1500.0,1500.0,1000.0,1500.0,10.0,AUTO,0.00042287914766347967,0.002937983488664031,2.4558000564575195,-0.17950503528118134,0.0010630397591739893,3.602504148148e-05,-35.36326245,149.16523765,27844.5
17:46:00,0.04901830869494006,0.14758071303367615,139.0,48.25,0.0,-5.37109390279511e-05,0.011250000447034836,0.0237000216729939,60.0,0.4339327961206436,140.0,1.0,1.0,1.0,1.0,0.0,1500.0,1500.0,1000.0,1500.0,10.0,AUTO,0.0006213916603883263,0.002805627998895943,2.453988552093506,-0.007521705701947212,-0.0005299062468111515,-1.1110736522823572e-05,-35.3632625,149.165237525,28289.75
17:46:01,-0.012966426089406013,0.1324721872806549,139.0,61.5,0.0,-0.000983886726316996,0.009000000543892384,0.022412757389247417,60.0,0.4427443593740463,140.0,1.0,1.0,1.0,1.0,0.0,1500.0,1500.0,1000.0,1500.0,10.0,AUTO,0.0013565781991928816,0.002394569106400013,2.4528274536132812,0.17291376739740372,-0.0012849076301790774,-0.0009465421317145228,-35.3632625,149.16523745,28737.5
17:46:02,-0.0685954118380323,0.13015232607722282,139.0,72.0,0.0,-0.0013360595476115122,0.012250000378116965,0.021439538337290287,60.0,0.43699996918439865,140.0,1.0,1.0,1.0,1.0,0.0,1500.0,1500.0,1000.0,1500.0,10.0,AUTO,0.00031304409822041634,0.0023470036685466766,2.4513795971870422,0.014215606730431318,-1.767027424648404e-05,-0.00026931425963994116,-35.3632625,149.1652374,29186.75
17:46:03,-0.10833445191383362,0.1277391016483307,139.0,77.0,0.0,-0.0003002929734066129,0.018000001087784767,0.021111616864800453,60.0,0.4313402473926544,140.0,1.0,1.0,1.0,1.0,0.0,1500.0,1500.0,1000.0,1500.0,10.0,AUTO,-0.003295389236882329,0.0022905098740011454,2.4503514766693115,-0.19229240715503693,-8.47384799271822e-05,-0.0020578913390636444,-35.3632625,149.1652374,29467.0
17:46:04,0.00011850004084408283,0.07291271537542343,139.0,113.6,0.0,-0.0006557617103680969,0.024200000613927842,0.0187514740973711,60.0,0.44409178495407103,140.0,1.0,1.0,1.0,1.0,0.0,1500.0,1500.0,1000.0,1500.0,10.0,AUTO,-0.0009227980044670403,0.001218982960563153,2.4489580631256103,-0.028712190687656403,0.00010076556354761123,6.621605716645717e-05,-35.3632623,149.16523744,30032.0
17:46:05,0.1010514497756958,0.06419498473405838,139.0,147.0,0.0,-0.0017895507626235485,0.020000001415610313,0.017315255478024483,60.0,0.45298251509666443,140.0,1.0,1.0,1.0,1.0,0.0,1500.0,1500.0,1000.0,1500.0,10.0,AUTO,0.003666271222755313,0.001059901900589466,2.4480438232421875,0.19975478947162628,-0.0001844599610194564,-0.001541289035230875,-35.3632622,149.1652375,30371.0
17:46:06,0.07511436194181442,0.11105492413043976,139.0,171.0,0.0,0.000384765616763616,0.004000000050291419,0.023150073364377022,60.0,0.44304917454719545,140.0,1.0,1.0,1.0,1.0,0.0,1500.0,1500.0,1000.0,1500.0,10.0,AUTO,0.0023002556466963143,0.001931282295845449,2.44649133682251,0.029526187479496,0.00036612122785300015,0.001188245043158531,-35.3632622,149.16523768000002,30934.4
17:46:07,0.127118568867445,0.09346526116132736,139.0,173.5,0.0,0.000496826152811991,0.0005000000237487257,0.0231060478836298,60.0,0.43464989960193634,140.0,1.0,1.0,1.0,1.0,0.0,1500.0,1500.0,1000.0,1500.0,10.0,AUTO,-0.00028070027474313974,0.0015185399679467082,2.4454588890075684,-0.15578693151474,0.0006969782989472151,-0.00016705243615433574,-35.3632622,149.1652377,31437.5
17:46:08,0.15861939638853073,0.09731924720108509,139.0,173.75,0.0,-6.469726213254035e-05,0.006750000262400135,0.022780651692301035,60.0,0.43864626437425613,140.0,1.0,1.0,1.0,1.0,0.0,1500.0,1500.0,1000.0,1500.0,10.0,AUTO,0.0024192228593165055,0.001552865287521854,2.444473445415497,-0.015304108150303364,0.0010091809090226889,0.00048689229879528284,-35.3632622,149.1652377,31884.75
17:46:09,0.1542789787054062,0.10644018650054932,139.0,167.5,0.0,0.00037597655318677425,0.014500000514090061,0.023334127850830555,60.0,0.44306887686252594,139.5,1.0,1.0,1.0,1.0,0.0,1500.0,1500.0,1000.0,1500.0,10.0,AUTO,0.0022365457261912525,0.001766251865774393,2.44361412525177,0.10647107288241386,0.0011910157045349479,5.962525028735399e-05,-35.3632622,149.1652377,32331.0
17:46:10,0.11725636757910252,0.12653821520507336,139.0,158.5,0.0,0.0004003906033176463,0.010750000597909093,0.022351354360580444,60.0,0.4316733554005623,139.0,1.0,1.0,1.0,1.0,0.0,1500.0,1500.0,1000.0,1500.0,10.0,AUTO,0.0025951122952392325,0.0020840429642703384,2.442996084690094,0.023589323507621884,0.000714642636012286,0.0005779754428658634,-35.3632622,149.1652377,32776.25
17:46:11,0.0956297293305397,0.1217208169400692,139.0,152.5,0.0,-0.0004956054617650807,0.007500000298023224,0.021995622664690018,60.0,0.4197204262018204,139.0,1.0,1.0,1.0,1.0,0.0,1500.0,1500.0,1000.0,1500.0,10.0,AUTO,0.002812898368574679,0.001985365990549326,2.442205548286438,-0.0567813697271049,0.0006553172133862972,0.0005569364293478429,-35.3632622,149.1652377,33217.0
17:46:12,0.07972942106425762,0.11709199659526348,139.0,142.75,0.0,-0.0004632568234228529,0.006000000168569386,0.021223716903477907,60.0,0.4293362498283386,139.0,1.0,1.0,1.0,1.0,0.0,1500.0,1500.0,1000.0,1500.0,10.0,AUTO,0.0005856051648152061,0.0020259051234461367,2.4415851831436157,-0.038465033983811736,0.0006263328541535884,-0.0005747548129875213,-35.3632622,149.1652376,33660.75
17:46:13,0.022511547664180398,0.11866160109639168,139.0,132.0,0.0,0.0013061523204669356,0.003000000026077032,0.02126205340027809,60.0,0.44192197918891907,139.0,1.0,1.0,1.0,1.0,0.0,1500.0,1500.0,1000.0,1500.0,10.0,AUTO,0.00012497992429416627,0.0020043463446199894,2.4408552646636963,-0.006691855378448963,0.0008803001837804914,-0.00013712630607187748,-35.3632622,149.1652376,34110.5
17:46:14,0.0002517573593650013,0.11330532282590866,139.0,129.5,0.0,-0.00033813476329669356,0.0062500004132743925,0.020235768985003233,60.0,0.44327428191900253,139.0,1.0,1.0,1.0,1.0,0.0,1500.0,1500.0,1000.0,1500.0,10.0,AUTO,0.0006243435345822945,0.0019190176390111446,2.4403116106987,0.047942353412508965,-0.0001564053527545184,0.0006418405100703239,-35.3632622,149.1652376,34561.75
17:46:15,0.014165664557367563,0.10625516250729561,139.0,142.5,0.0,0.0005871581961400807,0.018000001087784767,0.020175371319055557,60.0,0.44238077104091644,139.0,1.0,1.0,1.0,1.0,0.0,1500.0,1500.0,1000.0,1500.0,10.0,AUTO,0.001494048919994384,0.001841137243900448,2.43980073928833,0.0517529034987092,-0.0005112712387926877,-0.0009411405771970749,-35.3632622,149.1652376,35016.5
17:46:16,0.05013965629041195,0.10192535445094109,139.0,162.75,0.0,-0.00010925292735919356,0.02400000113993883,0.023533578496426344,60.0,0.44514933228492737,139.0,1.0,1.0,1.0,1.0,0.0,1500.0,1500.0,1000.0,1500.0,10.0,AUTO,0.00013568981921707746,0.0017320145561825484,2.439002811908722,-0.03641356015577912,-4.014174919575453e-05,0.0006717644282616675,-35.3632622,149.1652376,35471.5
17:46:17,0.09500794112682343,0.0984375849366188,139.0,176.0,0.0,-0.0009130859398283064,0.021000001579523087,0.028078140690922737,60.0,0.44799551367759705,139.0,1.0,1.0,1.0,1.0,0.0,1500.0,1500.0,1000.0,1500.0,10.0,AUTO,-2.101468635373749e-05,0.0017849383875727654,2.4385054111480713,-0.03481180593371391,-0.0015228656120598316,0.0003036392154172063,-35.3632621,149.1652377,35754.0
17:46:18,0.06165926530957222,0.09347861558198929,139.0,184.8,0.0,0.00012402342399582268,0.013000000454485416,0.033765635639429095,60.0,0.44634485244750977,139.0,1.0,1.0,1.0,1.0,0.0,1500.0,1500.0,1000.0,1500.0,10.0,AUTO,0.0012228228526510066,0.0015201728790998458,2.4382705211639406,-0.010747696459293365,0.0010679077589884401,-0.0002655125805176795,-35.3632621,149.16523776000002,36316.0
17:46:19,0.18203753978013992,0.11050841957330704,139.0,196.0,0.0,0.0012915038969367743,0.008500000229105353,0.034871893003582954,60.0,0.44250404834747314,139.0,1.0,1.0,1.0,1.0,0.0,1500.0,1500.0,1000.0,1500.0,10.0,AUTO,0.004644268308766186,0.0018755925702862442,2.4374722242355347,0.06795053742825985,0.0009542715852148831,-0.0001105836417991668,-35.36326205,149.16523784999998,36823.0
17:46:20,0.23680566996335983,0.12028258107602596,139.0,201.75,0.0,0.00048706056168157374,0.0017500000540167093,0.03902937099337578,60.0,0.4429018422961235,139.0,1.0,1.0,1.0,1.0,0.0,1500.0,1500.0,1000.0,1500.0,10.0,AUTO,0.003231154609238729,0.002022523374762386,2.43730491399765,-0.03666805196553469,0.000612885836744681,0.000128168539959006,-35.363262,149.1652379,37271.75
17:46:21,0.251870721578598,0.123566173017025,139.0,202.0,0.0,0.00031494139693677425,0.004000000189989805,0.04190942272543907,60.0,0.44791358709335327,139.0,1.0,1.0,1.0,1.0,0.0,1500.0,1500.0,1000.0,1500.0,10.0,AUTO,0.0031106530223041773,0.001944781863130629,2.4372150897979736,0.008306106552481651,0.0003931125393137336,-0.0005573411472141743,-35.363262,149.1652379,37552.0
17:46:22,0.2258491724729538,0.1295856475830078,139.0,198.2,0.0,-0.0003749999828869477,0.018000001087784767,0.03907253220677376,60.0,0.43694711327552793,139.0,1.0,1.0,1.0,1.0,0.0,1500.0,1500.0,1000.0,1500.0,10.0,AUTO,0.0040207950631156565,0.0021729550790041685,2.436418294906616,0.03566984459757805,0.0007264146581292153,0.0013035324634984135,-35.363262,149.1652379,38111.0
17:46:23,0.2347348928451538,0.13789941370487213,139.0,192.0,0.0,3.9062499126885086e-05,0.02200000174343586,0.03247547894716263,60.0,0.42864665389060974,139.0,1.0,1.0,1.0,1.0,0.0,1500.0,1500.0,1000.0,1500.0,10.0,AUTO,0.002220831112936139,0.002338587772101164,2.436371326446533,-0.16643214225769043,0.00019863061606884003,0.0022190026938915253,-35.363262,149.1652379,38444.0
17:46:24,0.17492364346981049,0.13120146095752716,139.0,157.2,0.0,-0.000995117155252956,0.025800000876188278,0.02332083135843277,60.0,0.43887960314750674,139.0,1.0,1.0,1.0,1.0,0.0,1500.0,1500.0,1000.0,1500.0,10.0,AUTO,0.0017413513356586917,0.0021525155752897263,2.436139678955078,-0.021056843176484107,0.00019836523570120334,0.0009769858559593558,-35.3632621,149.16523768000002,39004.8
17:46:25,0.15530575811862946,0.12847213447093964,139.0,133.0,0.0,-0.00010986327833961695,0.029000001028180122,0.019470835104584694,60.0,0.44512930512428284,139.0,1.0,1.0,1.0,1.0,0.0,1500.0,1500.0,1000.0,1500.0,10.0,AUTO,0.004793585743755102,0.0020780987106263638,2.435818910598755,0.13812652230262756,-0.00015850388444960117,0.0009276482742279768,-35.3632622,149.1652376,39342.0
17:46:26,0.0066186950258270375,0.14844461381435395,139.0,83.2,0.0,-0.0014990234340075403,0.026200000569224356,0.024479133263230323,60.0,0.44100562334060667,139.0,1.0,1.0,1.0,1.0,0.0,1500.0,1500.0,1000.0,1500.0,10.0,AUTO,-0.0005213383396039717,0.002520457375794649,2.435606861114502,0.003374452888965607,0.00033313015010207894,0.000395766063593328,-35.36326236,149.16523733999998,39899.6
17:46:27,-0.05710722506046295,0.1325412094593048,139.0,74.5,0.0,0.0001599121078470489,0.00950000062584877,0.032972739078104496,60.0,0.44444797933101654,139.0,1.0,1.0,1.0,1.0,0.0,1500.0,1500.0,1000.0,1500.0,10.0,AUTO,-0.00047997775254771113,0.0022504236549139023,2.4352082014083862,0.14419343695044518,-7.228978211060166e-05,-0.00017270533135160804,-35.36326245,149.16523725000002,40402.5
17:46:28,-0.06913009891286492,0.102934081107378,139.0,75.75,0.0,-0.0009973144151445013,0.007250000257045031,0.03894190490245819,60.0,0.43348637223243713,139.0,1.0,1.0,1.0,1.0,0.0,1500.0,1500.0,1000.0,1500.0,10.0,AUTO,-0.0009748800148372538,0.001711612450890243,2.435035765171051,0.0061554014682769775,0.0007551067101303488,0.0007748233765596524,-35.3632625,149.165237125,40850.0
17:46:29,-0.14288245141506195,0.12679646536707878,139.0,74.0,0.0,-0.0012622070498764515,0.006500000366941094,0.04050765000283718,60.0,0.4320368766784668,139.0,1.0,1.0,1.0,1.0,0.0,1500.0,1500.0,1000.0,1500.0,10.0,AUTO,-0.0010391072137281299,0.002212406834587455,2.4347704648971558,0.10332024935632944,0.00042478193063288927,0.0002743997029028833,-35.3632625,149.1652371,41293.5
17:46:30,-0.17910873517394066,0.11003898084163666,139.0,74.25,0.0,-0.0004968261582689593,0.017250000964850187,0.038194626569747925,60.0,0.43380751460790634,139.0,1.0,1.0,1.0,1.0,0.0,1500.0,1500.0,1000.0,1500.0,10.0,AUTO,-0.002430663851555437,0.0019532952865120023,2.43460351228714,-0.020204387605190277,-0.0004752232343889773,-0.0005293092981446534,-35.3632625,149.1652371,41741.5
17:46:31,-0.26308441907167435,0.086932223290205,139.0,82.0,0.0,-0.001013183587929234,0.03350000083446503,0.027328568510711193,60.0,0.43965618312358856,139.0,1.0,1.0,1.0,1.0,0.0,1500.0,1500.0,1000.0,1500.0,10.0,AUTO,-0.004766837228089571,0.0014994251541793346,2.4343602657318115,-0.08146314881742,0.00040691159665584564,-0.001069085585186258,-35.36326245,149.16523715,42189.5
17:46:32,-0.13321558758616447,0.05247978959232569,139.0,112.5,0.0,-0.0014001464660395868,0.05700000189244747,0.01967983436770737,60.0,0.43987513333559036,139.0,1.0,1.0,1.0,1.0,0.0,1500.0,1500.0,1000.0,1500.0,10.0,AUTO,-0.0017811282305046916,0.0009184270820696838,2.4341718554496765,0.05165734468027949,-0.0001445975503884256,0.0007854361901991069,-35.3632623,149.16523732500002,42638.5
17:46:33,-0.051309436559677124,0.03694501146674156,139.0,156.0,0.0,0.00020019531075377017,0.06599999964237213,0.01596646197140217,60.0,0.43137338757514954,139.0,1.0,1.0,1.0,1.0,0.0,1500.0,1500.0,1000.0,1500.0,10.0,AUTO,0.00037727851304225624,0.0005921028205193579,2.4342844486236572,-0.015619182959198952,0.00165508221834898,-0.0020651633385568857,-35.3632621,149.1652375,42920.0
17:46:34,0.23922461569309234,0.04619444161653519,139.0,201.2,0.0,-0.0013212890276918187,0.04440000131726265,0.04178472086787224,60.0,0.4395893931388855,139.0,1.0,1.0,1.0,1.0,0.0,1500.0,1500.0,1000.0,1500.0,10.0,AUTO,0.004203968774527311,0.0007796945632435381,2.4336079120635987,0.029358693212270737,0.0010604673996567726,0.0009636628674343228,-35.36326184,149.165238,43482.4
17:46:35,0.3098641037940979,0.10260634869337082,139.0,210.0,0.0,-9.765624417923391e-05,0.01900000125169754,0.0595669150352478,60.0,0.43802735209465027,139.0,1.0,1.0,1.0,1.0,0.0,1500.0,1500.0,1000.0,1500.0,10.0,AUTO,0.0037322526331990957,0.0017199073918163776,2.4335615634918213,-0.12952475249767303,0.0023991670459508896,0.004103977233171463,-35.3632618,149.1652381,43818.0
17:46:36,0.33808673620224,0.1158401221036911,139.0,213.8,0.0,-0.0002919921826105565,0.010000000428408384,0.06790144443511963,60.0,0.4428823530673981,139.0,1.0,1.0,1.0,1.0,0.0,1500.0,1500.0,1000.0,1500.0,10.0,AUTO,0.005884261662140488,0.0018843292025849223,2.4334810733795167,-0.009355004131793975,0.00022302139550447463,0.0010051175253465773,-35.3632617,149.1652383,44383.4
17:46:37,0.3633275628089905,0.12980125844478607,139.0,214.0,0.0,0.0011035156203433871,0.017000000923871994,0.06588194519281387,60.0,0.4414699673652649,139.0,1.0,1.0,1.0,1.0,0.0,1500.0,1500.0,1000.0,1500.0,10.0,AUTO,0.008161596953868866,0.0021815928630530834,2.4332027435302734,0.10161373764276505,0.0012048159260302782,0.0019402755424380302,-35.3632617,149.1652383,44720.0
17:46:38,0.32377380728721616,0.10835753083229065,139.0,208.6,0.0,4.296875122236088e-05,0.020000001415610313,0.06075213924050331,60.0,0.4399151921272278,139.0,1.0,1.0,1.0,1.0,0.0,1500.0,1500.0,1000.0,1500.0,10.0,AUTO,0.005440990906208754,0.0018001086311414838,2.433286952972412,-0.013821272552013398,-2.2713281214237214e-05,0.0005267263622954488,-35.3632618,149.16523813999999,45281.0
17:46:39,0.23477603495121002,0.09187385439872742,139.0,203.0,0.0,-0.0012499999720603228,0.024000000208616257,0.060049474239349365,60.0,0.4422602653503418,139.0,1.0,1.0,1.0,1.0,0.0,1500.0,1500.0,1000.0,1500.0,10.0,AUTO,0.00351508310995996,0.001512827817350626,2.4333243370056152,-0.04487099498510361,0.0032567784655839205,-0.00075442751403898,-35.3632618,149.165238,45618.0
17:46:40,0.2413091778755188,0.14368644952774048,139.0,201.0,0.0,-0.0006621093489229679,0.014400000497698785,0.04793706387281418,60.0,0.4329282283782959,139.0,1.0,1.0,1.0,1.0,0.0,1500.0,1500.0,1000.0,1500.0,10.0,AUTO,0.00431312145665288,0.0024789218325167893,2.433097982406616,0.021933885291218758,0.0006232279585674406,0.0018883785465732216,-35.363261939999994,149.16523793999997,46176.2
17:46:41,0.21710660308599472,0.153759203851223,139.0,194.0,0.0,-0.0002807617092912551,0.014500000514090061,0.03823898918926716,60.0,0.4317115545272827,139.0,1.0,1.0,1.0,1.0,0.0,1500.0,1500.0,1000.0,1500.0,10.0,AUTO,0.004199691116809845,0.0026654680259525776,2.4330484867095947,0.025134090334177017,0.0006026357877999544,0.0014814818860031664,-35.363262,149.16523784999998,46675.5
17:46:42,0.21187184751033783,0.12789560854434967,139.0,176.75,0.0,-0.0009338378586107865,0.016250000800937414,0.030040793120861053,60.0,0.43399325013160706,139.0,1.0,1.0,1.0,1.0,0.0,1500.0,1500.0,1000.0,1500.0,10.0,AUTO,0.0026438454806338996,0.0021151443070266396,2.432935953140259,-0.02342355065047741,-8.463911945000291e-05,0.0009689414000604302,-35.363262075,149.16523775000002,47122.25
17:46:43,0.12018749117851257,0.11694354563951492,139.0,161.0,0.0,-0.001909179612994194,0.01600000075995922,0.030021533370018005,60.0,0.43651625514030457,139.0,1.0,1.0,1.0,1.0,0.0,1500.0,1500.0,1000.0,1500.0,10.0,AUTO,0.0014717921148985624,0.0019903178326785564,2.4329755306243896,-0.14394107460975647,0.0021160789765417576,0.001396469189785421,-35.3632621,149.1652377,47404.0
17:46:44,0.07717167213559151,0.11519346833229065,139.0,144.4,0.0,-0.0009638671530410647,0.005800000205636024,0.024737168103456497,60.0,0.4430873453617096,139.0,1.0,1.0,1.0,1.0,0.0,1500.0,1500.0,1000.0,1500.0,10.0,AUTO,0.0003367361205164343,0.0019315504701808094,2.4329317569732667,-0.03333428502082825,0.0005571191664785147,-0.000628959247842431,-35.3632621,149.1652376,47965.8
17:46:45,0.0815914198756218,0.10678354650735855,139.0,151.0,0.0,-0.0009619140182621777,0.012000000104308128,0.026154978200793266,60.0,0.45372459292411804,139.0,1.0,1.0,1.0,1.0,0.0,1500.0,1500.0,1000.0,1500.0,10.0,AUTO,0.00207242788746953,0.0019546591211110353,2.432565927505493,0.17454706132411957,0.000172346830368042,-0.00029796245507895947,-35.3632621,149.1652376,48306.0
17:46:46,0.05953844040632248,0.11009536385536194,139.0,166.6,0.0,-0.000578124991079676,0.012600000575184822,0.029092706367373468,60.0,0.44084922075271604,139.0,1.0,1.0,1.0,1.0,0.0,1500.0,1500.0,1000.0,1500.0,10.0,AUTO,0.0017742819385603071,0.0018954072846099734,2.432694673538208,0.05048274844884872,0.0013076090719550848,0.0009718689601868391,-35.3632621,149.1652376,48866.4
17:46:47,0.09813781827688217,0.11507721990346909,139.0,174.0,0.0,-0.0010839843889698386,0.01100000087171793,0.027628794312477112,60.0,0.4339566230773926,139.0,1.0,1.0,1.0,1.0,0.0,1500.0,1500.0,1000.0,1500.0,10.0,AUTO,0.000110478067654185,0.002004243666306138,2.43257474899292,-0.17850278317928314,-0.00013769138604402542,8.806586265563965e-05,-35.3632621,149.1652376,49204.0
17:46:48,0.12127345651388169,0.10342550277709961,139.0,179.6,0.0,-5.957030807621777e-05,0.00800000037997961,0.02978648468852043,60.0,0.4404271006584167,139.0,1.0,1.0,1.0,1.0,0.0,1500.0,1500.0,1000.0,1500.0,10.0,AUTO,0.0021087169763632117,0.0017995547270402313,2.4323676586151124,-0.019472348038107157,-3.570474218577147e-05,0.0012886331183835863,-35.3632621,149.1652377,49767.6
17:46:49,0.09138017147779465,0.0914430320262909,139.0,182.0,0.0,0.0008300780900754035,0.004000000189989805,0.03558625653386116,60.0,0.4489496350288391,139.0,1.0,1.0,1.0,1.0,0.0,1500.0,1500.0,1000.0,1500.0,10.0,AUTO,0.004064163193106651,0.0016026358352974057,2.43265962600708,0.18085592985153198,0.0023892330937087536,0.004096195101737976,-35.3632621,149.1652377,50105.0
17:46:50,0.16254010498523713,0.08807850033044815,139.0,189.4,0.0,-7.324219059228199e-05,0.010200000554323196,0.03536185100674629,60.0,0.44942799806594846,139.0,1.0,1.0,1.0,1.0,0.0,1500.0,1500.0,1000.0,1500.0,10.0,AUTO,0.0031383967492729426,0.0018810768378898501,2.433453989028931,0.038190189842134716,0.00044612514320760963,0.0015616211807355286,-35.3632621,149.16523777999998,50669.8
17:46:51,0.21164296567440033,0.10323886573314667,139.0,197.0,0.0,0.00047363279736600816,0.007000000216066837,0.03612542897462845,60.0,0.4377569258213043,139.0,1.0,1.0,1.0,1.0,0.0,1500.0,1500.0,1000.0,1500.0,10.0,AUTO,0.0013206899166107178,0.001944560557603836,2.4334022998809814,-0.11774256825447083,0.0027142325416207314,0.0003784144064411521,-35.363262,149.1652379,51008.0
17:46:52,0.24718950986862182,0.11415978074073792,139.0,201.8,0.0,-0.0008310546632856131,0.0032000000588595866,0.04216438755393028,60.0,0.4435976266860962,139.0,1.0,1.0,1.0,1.0,0.0,1500.0,1500.0,1000.0,1500.0,10.0,AUTO,0.00384596127551049,0.0019648605724796654,2.4333226680755615,-0.02300337627530098,0.0012574502499774099,-0.0003664398565888405,-35.363262,149.16523794,51568.6
17:46:53,0.2425103634595871,0.11825069785118103,139.0,201.0,0.0,-0.0018505859188735485,0.01100000087171793,0.04451897740364075,60.0,0.44964033365249634,139.0,1.0,1.0,1.0,1.0,0.0,1500.0,1500.0,1000.0,1500.0,10.0,AUTO,0.002214427338913083,0.0020762106869369745,2.432870626449585,-0.03195067495107651,0.000203046016395092,-0.0005442054243758321,-35.363262,149.165238,51906.0
17:46:54,0.21861544549465178,0.12792957425117493,139.0,195.0,0.0,-0.0008593749778810888,0.021800001710653306,0.03887002393603325,58.8,0.45235294103622437,139.0,1.0,1.0,1.0,1.0,0.0,1500.0,1500.0,1000.0,1500.0,10.0,AUTO,0.0036548660835251214,0.0021724870428442957,2.4330538749694823,0.014362114667892455,0.00037252241745591166,0.0006748115178197622,-35.363262,149.16523788,52470.4
17:46:55,0.2060219943523407,0.11773260682821274,139.0,185.0,0.0,-0.0004833984130527824,0.023000001907348633,0.03125343844294548,55.0,0.4486727714538574,139.0,1.0,1.0,1.0,1.0,0.0,1500.0,1500.0,1000.0,1500.0,10.0,AUTO,0.005365173332393169,0.0019513509469106793,2.433035135269165,0.11535017937421799,0.0001287548802793026,0.0013976837508380413,-35.363262,149.1652378,52810.0
17:46:56,0.20096256732940673,0.10399785935878754,139.0,147.6,0.0,0.00016796873533166944,0.02240000106394291,0.022891542688012124,53.0,0.4219382107257843,139.0,1.0,1.0,1.0,1.0,0.0,1500.0,1500.0,1000.0,1500.0,10.0,AUTO,0.0016581003786996008,0.002637712424620986,2.436418151855469,0.03384488672018051,0.002490421128459275,0.005611396068707109,-35.36326214,149.16523764,53359.0
17:46:57,0.2505062520503998,0.04623084515333176,139.0,135.0,0.0,0.0009667968261055648,0.017000000923871994,0.022788189351558685,51.0,0.3943592309951782,139.0,1.0,1.0,1.0,1.0,0.0,1500.0,1500.0,1000.0,1500.0,10.0,AUTO,-0.0019631863106042147,0.00292016938328743,2.4414305686950684,-0.31736069917678833,-0.012459870427846909,0.007869981229305267,-35.3632622,149.1652376,53674.0
17:46:58,0.3730799198150635,-1.3301609098911285,139.0,100.6,56.0,-0.04296386577188969,0.03460000138729811,0.06751151457428932,43.2,0.12192412670701742,142.6,1.0,1.0,1.0,1.0,0.0,1500.0,1500.0,1000.0,1500.0,10.0,AUTO,-0.01450102983508259,0.0045417457353323695,2.5022620677948,-0.06183179616928101,-0.026456569880247117,0.07668037936091424,-35.36326208,149.16523744,54028.4
17:46:59,-0.21433427929878235,-3.5153584480285645,139.0,94.0,70.0,-0.050776366144418716,0.09200000762939453,0.14571547508239746,43.0,0.028707632794976234,145.0,1.0,1.0,1.0,1.0,0.0,1500.0,1500.0,1000.0,1500.0,10.0,AUTO,-0.028645098209381104,-0.02855406329035759,2.532282829284668,0.296272337436676,-0.023699095472693443,-0.07349075376987457,-35.3632617,149.1652377,54067.0
17:47:00,-3.1074235439300537,-6.875611877441406,123.6,94.0,69.8,-0.02308496069163084,0.5872000277042388,0.7209874749183655,53.0,0.313398152589798,126.4,1.0,1.0,1.0,1.0,0.0,1500.0,1500.0,1000.0,1500.0,10.0,AUTO,-0.04770797677338123,-0.129536210000515,2.2190290451049806,-0.012125317752361298,-0.07083591558039189,-0.6181433781981468,-35.363262320000004,149.16524316,54282.6
17:47:01,-0.9597765803337097,-10.871736526489258,97.0,94.0,69.0,0.03549804538488388,1.037000060081482,1.2300753593444824,67.0,0.32512056827545166,94.0,1.0,1.0,1.0,1.0,0.0,1500.0,1500.0,1000.0,1500.0,10.0,AUTO,0.008054365403950214,-0.21532608568668365,1.6477129459381104,-0.06270922720432281,-0.09170887619256973,-0.5585521459579468,-35.3632634,149.1652503,54552.0
17:47:02,0.8775202393531799,-15.276903533935547,94.0,94.0,67.2,0.911952143907547,1.8464000701904297,1.9656192302703857,99.0,0.018673647195100784,92.4,1.0,1.0,1.0,1.0,0.0,1500.0,1500.0,1000.0,1500.0,10.0,AUTO,0.024914975464344024,-0.2795058250427246,1.618519115447998,0.01492217630147934,-0.022976479027420282,0.02785449018701911,-35.363264900000004,149.1652724,54703.2
17:47:03,1.2737023830413818,-14.768430709838867,94.0,94.0,66.0,1.7070459127426147,2.1500000953674316,2.1917920112609863,100.0,-0.07268954068422318,93.0,1.0,1.0,1.0,1.0,0.0,1500.0,1500.0,1000.0,1500.0,10.0,AUTO,0.02685476839542389,-0.26615047454833984,1.6261416673660278,-0.14894701540470123,0.13322600722312927,-0.004511025734245777,-35.3632656,149.1652894,54692.0
17:47:04,1.3885032176971435,-10.009396171569824,94.0,94.0,63.2,2.9799051761627195,1.8258000612258911,1.7502466917037964,100.0,0.18554852157831192,93.0,1.0,1.0,1.0,1.0,0.0,1500.0,1500.0,1000.0,1500.0,10.0,AUTO,0.02650761976838112,-0.17317186594009398,1.6263752460479737,-0.02489861398935318,0.006868995726108551,0.0037351093254983426,-35.363266700000004,149.16531632000002,54792.2
17:47:05,1.1606483459472656,-9.933882713317871,94.0,94.0,62.0,3.5899267196655273,1.6090000867843628,1.5798882246017456,100.0,0.2323140650987625,93.0,1.0,1.0,1.0,1.0,0.0,1500.0,1500.0,1000.0,1500.0,10.0,AUTO,0.02440701425075531,-0.17366480827331543,1.626904845237732,0.10351799428462982,-0.0019018079619854689,0.005082680843770504,-35.3632674,149.1653301,54949.0
17:47:06,1.0425688743591308,-9.945940971374512,94.0,94.0,60.0,3.625,1.5110000610351562,1.503748631477356,100.0,0.23304716348648072,93.0,1.0,1.0,1.0,1.0,0.0,1500.0,1500.0,1000.0,1500.0,10.0,AUTO,0.021305720135569573,-0.17409081757068634,1.6287237405776978,0.027652418613433837,0.0006055985577404499,0.003725529741495848,-35.36326854,149.16535108,55239.0
17:47:07,1.0411443710327148,-9.94611930847168,94.0,94.0,59.0,3.625,1.4930000305175781,1.4823776483535767,100.0,0.2285749763250351,93.0,1.0,1.0,1.0,1.0,0.0,1500.0,1500.0,1000.0,1500.0,10.0,AUTO,0.02036304585635662,-0.17389696836471558,1.6300818920135498,-0.07917667180299759,-0.0005496391095221043,0.006572856102138758,-35.3632692,149.1653634,55416.0
17:47:08,1.1661385774612427,-9.923115539550782,94.0,94.0,57.0,3.625,1.4838000535964966,1.468953537940979,100.0,0.23320398032665252,93.0,1.0,1.0,1.0,1.0,0.0,1500.0,1500.0,1000.0,1500.0,10.0,AUTO,0.022645199298858644,-0.17333296835422515,1.6311829090118408,-0.03609831482172012,0.0027161729522049427,0.0024865618441253902,-35.3632702,149.16538382000002,55716.2
17:47:09,1.2239965200424194,-9.491819381713867,94.0,94.0,56.0,3.625,1.4800000190734863,1.4557418823242188,100.0,0.23206181824207306,93.0,1.0,1.0,1.0,1.0,0.0,1500.0,1500.0,1000.0,1500.0,10.0,AUTO,0.025826042518019676,-0.16598166525363922,1.631791114807129,0.18785059452056885,0.03572395071387291,0.0003224629908800125,-35.3632708,149.165396,55894.0
17:47:10,1.2674286842346192,-8.008536624908448,94.0,94.0,54.4,3.625,1.3342000484466552,1.2899143934249877,100.0,0.28343040943145753,93.0,1.0,1.0,1.0,1.0,0.0,1500.0,1500.0,1000.0,1500.0,10.0,AUTO,0.023647764697670937,-0.13875055313110352,1.6327722311019897,0.019737616926431657,0.010138590773567557,0.00010317894630134106,-35.363271960000006,149.16541508,56230.2
17:47:11,1.1986457109451294,-7.650428771972656,94.0,94.0,53.0,3.625,1.2430000305175781,1.2048183679580688,100.0,0.298745721578598,93.0,1.0,1.0,1.0,1.0,0.0,1500.0,1500.0,1000.0,1500.0,10.0,AUTO,0.020199144259095192,-0.1330122947692871,1.6336840391159058,-0.136548712849617,0.003538917051628232,0.004791629500687122,-35.3632727,149.1654256,56457.0
17:47:12,1.115034818649292,-7.518102645874023,94.0,94.0,51.6,3.625,1.1640000343322754,1.1362136363983155,100.0,0.3176303207874298,93.0,1.0,1.0,1.0,1.0,0.0,1500.0,1500.0,1000.0,1500.0,10.0,AUTO,0.021146306395530702,-0.13127588033676146,1.6346867322921752,0.016739802062511445,0.0006585181457921862,0.0018680565524846315,-35.36327378,149.16544184000003,56860.2
17:47:13,1.1186524629592896,-7.541561126708984,94.0,94.0,51.0,3.625,1.1480000019073486,1.1214019060134888,100.0,0.3144344687461853,93.0,1.0,1.0,1.0,1.0,0.0,1500.0,1500.0,1000.0,1500.0,10.0,AUTO,0.02011699415743351,-0.13194960355758667,1.6351666450500488,-0.11173772811889648,-0.0018820555415004492,0.004045687150210142,-35.3632744,149.1654513,57109.0
17:47:14,1.2194972515106202,-7.7418536186218265,94.0,94.0,49.4,3.625,1.1534000635147095,1.1268056392669679,100.0,0.3105790913105011,93.0,1.0,1.0,1.0,1.0,0.0,1500.0,1500.0,1000.0,1500.0,10.0,AUTO,0.020774081349372864,-0.135282963514328,1.6354808807373047,-0.04568917006254196,-0.0033803961239755155,0.0019705028273165224,-35.3632754,149.16546707999998,57518.8
17:47:15,1.2342106103897095,-7.865079879760742,94.0,94.0,49.0,3.625,1.1660000085830688,1.1415295600891113,100.0,0.3158031404018402,93.0,1.0,1.0,1.0,1.0,0.0,1500.0,1500.0,1000.0,1500.0,10.0,AUTO,0.023620473220944405,-0.1374855786561966,1.6359922885894775,0.16524088382720947,0.001311121741309762,0.00016766157932579517,-35.363276,149.1654766,57762.0
17:47:16,1.158228826522827,-8.02111520767212,94.0,94.0,47.2,3.625,1.1868000507354737,1.1675225019454956,100.0,0.30566545724868777,93.0,1.0,1.0,1.0,1.0,0.0,1500.0,1500.0,1000.0,1500.0,10.0,AUTO,0.020935651287436484,-0.1400735408067703,1.636247420310974,0.04333433490246534,-0.0030754046980291604,0.0008896967861801386,-35.3632772,149.16549284,58161.2
17:47:17,1.0366543531417847,-8.097477912902832,94.0,94.0,46.0,3.625,1.2020000219345093,1.1869176626205444,100.0,0.29728734493255615,93.0,1.0,1.0,1.0,1.0,0.0,1500.0,1500.0,1000.0,1500.0,10.0,AUTO,0.01875430718064308,-0.14145565032958984,1.6369167566299438,-0.089140385389328,0.003504391061142087,0.004632885567843914,-35.3632779,149.1655027,58399.0
17:47:18,0.9997531056404114,-8.288647270202636,94.0,94.0,44.6,3.625,1.223400068283081,1.2092464923858643,100.0,0.3025922477245331,93.0,1.0,1.0,1.0,1.0,0.0,1500.0,1500.0,1000.0,1500.0,10.0,AUTO,0.019868965819478036,-0.1446901023387909,1.6372644424438476,0.010015600174665452,-0.0009406562894582748,0.0011297452030703426,-35.363278980000004,149.16551950000002,58797.0
17:47:19,1.025270938873291,-8.342799186706543,94.0,94.0,44.0,3.625,1.2360000610351562,1.2210544347763062,100.0,0.2924497723579407,93.0,1.0,1.0,1.0,1.0,0.0,1500.0,1500.0,1000.0,1500.0,10.0,AUTO,0.01895914413034916,-0.14575643837451935,1.6374702453613281,-0.11927221715450287,0.0008412436582148075,0.0034927858505398035,-35.3632796,149.1655297,59032.0
17:47:20,1.1552050113677979,-8.456188201904297,94.0,94.0,42.4,3.625,1.2522000789642334,1.234293484687805,100.0,0.29698888659477235,93.0,1.0,1.0,1.0,1.0,0.0,1500.0,1500.0,1000.0,1500.0,10.0,AUTO,0.020011812448501587,-0.14755870997905732,1.6375839471817017,-0.0296114020049572,-0.0015741230919957161,0.0019477394875138999,-35.36328048,149.16554678,59416.2
17:47:21,1.1815356016159058,-8.514596939086914,94.0,94.0,41.0,3.625,1.2580000162124634,1.2418863773345947,100.0,0.3045864999294281,93.0,1.0,1.0,1.0,1.0,0.0,1500.0,1500.0,1000.0,1500.0,10.0,AUTO,0.021675599738955498,-0.1485694944858551,1.6379320621490479,0.13545171916484833,0.0017773434519767761,-0.0014093737117946148,-35.363281,149.1655572,59648.0
17:47:22,1.2062472105026245,-8.533860969543458,94.0,94.0,39.6,3.625,1.2660000562667846,1.2534537315368652,100.0,0.3037191092967987,93.0,1.0,1.0,1.0,1.0,0.0,1500.0,1500.0,1000.0,1500.0,10.0,AUTO,0.02174379751086235,-0.1488971620798111,1.6382822275161744,0.03119578193873167,0.00040914181154221295,0.0010997242294251918,-35.36328194,149.1655745,60031.4
17:47:23,1.2737594842910767,-8.591506004333496,94.0,94.0,39.0,3.625,1.2710000276565552,1.255035400390625,100.0,0.2989467978477478,93.0,1.0,1.0,1.0,1.0,0.0,1500.0,1500.0,1000.0,1500.0,10.0,AUTO,0.022525666281580925,-0.15020668506622314,1.6387100219726562,-0.0018926393240690231,0.0010741250589489937,0.0030779594089835882,-35.3632825,149.165585,60263.0
17:47:24,1.2773480892181397,-8.58086280822754,94.0,94.0,37.0,3.625,1.2784000635147095,1.2631973505020142,100.0,0.2959753930568695,93.0,1.0,1.0,1.0,1.0,0.0,1500.0,1500.0,1000.0,1500.0,10.0,AUTO,0.02236321531236172,-0.1498134583234787,1.6387296438217163,-0.033819953352212904,0.0004732008557766676,0.0013741218950599431,-35.3632836,149.16560252000002,60644.0
