time_stamp,MODE,roll,pitch,yaw,rollspeed,pitchspeed,yawspeed,lat,lon,relative_alt,nav_roll,nav_pitch,nav_bearing,target_bearing,wp_dist,alt_error,airspeed,groundspeed,throttle,climb,heading,GPS_status,Gyro_status,Accel_status,Baro_status,PreArm_error,chan1_raw,chan2_raw,chan3_raw,chan4_raw,satellites_visible
16:27:30,STABILIZE,0.0003062513715121895,0.0015764129348099232,0.026874255388975143,0.00034974023583345115,0.0003389910561963916,0.002273969352245331,-35.3632621,149.1652374,0.0,3.7233719922369346e-05,4.9160549679072574e-05,1.0,0.0,0.0,0.01337115652859211,0.0,0.022457636892795563,0.0,0.004987040534615517,1.0,1.0,1.0,1.0,1.0,0.0,1500.0,1500.0,1000.0,1500.0,10.0
16:27:31,STABILIZE,0.0002204925549449399,0.0014602747978642583,0.026383593678474426,0.0002892420452553779,0.00013495484017767012,0.0021956865675747395,-35.3632622,149.1652375,0.0,3.7233683542581275e-05,4.9160509661305696e-05,1.0,0.0,0.0,0.005601632408797741,0.0,0.028062570840120316,0.0,0.004124877508729696,1.0,1.0,1.0,1.0,1.0,0.0,1500.0,1500.0,1000.0,1500.0,10.0
16:27:33,STABILIZE,-0.000343753151052321,0.0010723635787144303,0.025274089848001797,0.0002669862878974527,0.00026202128113557893,0.0020892339137693248,-35.3632622,149.1652375,0.0,3.7233647162793204e-05,4.916048055747524e-05,1.0,0.0,0.0,0.002774721710011363,0.0,0.02648650947958231,0.0,0.0025181618984788656,1.0,1.0,1.0,1.0,1.0,0.0,1500.0,1500.0,1000.0,1500.0,10.0
16:27:39,STABILIZE,-0.0008332265133503824,0.000976928073214367,0.023069164715707302,0.00018373061902821064,0.00022049457766115665,0.0017804132075980306,-35.36326215,149.1652375,0.0,3.7233796319924295e-05,4.9160769170460604e-05,1.0,0.0,0.0,-0.0015718210100506742,0.0,0.021561389788985252,0.0,-0.001384783594403416,1.0,1.0,1.0,1.0,1.0,0.0,1500.0,1500.0,1000.0,1500.0,10.0
16:27:43,STABILIZE,-0.0006068806978873909,0.0009705268118220071,0.021979201585054398,0.0003046498168259859,0.0002602226644133528,0.0016195656110843022,-35.3632622,149.1652375,0.3333333333333333,3.723400004673749e-05,4.916109173791483e-05,1.0,0.0,0.0,-0.010897401720285416,0.0,0.02217263914644718,0.0,0.0066200075671076775,1.0,1.0,1.0,1.0,1.0,0.0,1500.0,1500.0,1000.0,1500.0,10.0
16:27:45,AUTO,-0.00044951374002266675,0.000953421404119581,0.021512659266591072,0.0003023489553015679,0.0002927193563664332,0.0015303146792575717,-35.3632622,149.1652375,6.0,3.723409705950568e-05,4.916126636089757e-05,1.0,94.33333333333333,0.0,-0.00546890248854955,0.0,0.02019488749404748,0.0,0.011514965134362379,1.0,1.0,1.0,1.0,1.0,0.0,1500.0,1500.0,1000.0,1500.0,10.0
16:27:46,AUTO,-0.00039109883073251694,0.0010417309240438044,0.021211834624409676,0.0002293179277330637,0.0002398198121227324,0.00152732856804505,-35.3632621,149.1652375,7.0,3.723414374690037e-05,4.9161355491378345e-05,1.0,144.5,0.0,0.0,0.0,0.008971909992396832,0.0,0.005373232299461961,1.0,1.0,1.0,1.0,1.0,0.0,1500.0,1500.0,1000.0,1500.0,10.0
16:27:47,AUTO,-0.00017353735529468395,0.0012158823665231466,0.021014064084738493,0.00011880844976985827,0.0002048051101155579,0.0014761865022592247,-35.3632621,149.1652375,5.25,3.7234171031741425e-05,4.916140460409224e-05,1.0,143.5,0.0,0.0,0.0,0.004969556583091617,0.0,-0.0019026781665161252,1.0,1.0,1.0,1.0,1.0,0.0,1500.0,1500.0,1000.0,1500.0,10.0
16:27:48,AUTO,0.00037688444717787206,0.0015573123819194734,0.02061733417212963,0.00038678766577504575,0.00028225412825122476,0.00138302450068295,-35.3632621,149.1652375,0.0,-0.05327821150422096,0.0033775789197534323,1.0,146.5,0.0,0.05092434957623482,0.0,0.007113807601854205,13.5,-0.01492584403604269,1.0,1.0,1.0,1.0,1.0,0.0,1500.0,1500.0,1000.0,1500.0,10.0
16:27:49,AUTO,0.0023485816418542527,0.0004702495934907347,0.020353039260953665,0.003538435194059275,-0.002900174120441079,0.000994724512565881,-35.3632621,149.1652375,55.0,-0.009505480295047164,0.0026000365614891052,1.0,145.25,0.0,0.2912081331014633,0.0017500000540167093,0.006772824679501355,43.5,0.24674817128106952,1.0,1.0,1.0,1.0,1.0,0.0,1500.0,1500.0,1000.0,1500.0,10.0
16:27:50,AUTO,0.032414862886071205,-0.003799344412982464,0.020191396586596966,0.04999214969575405,-0.008754708338528872,0.002563292975537479,-35.36326205,149.1652376,1048.0,-1.3434025049209595,0.3371588885784149,1.0,184.0,0.0,0.29424944519996643,0.0540000032633543,0.09228011593222618,80.5,1.1343697905540466,1.0,1.0,1.0,1.0,1.0,0.0,1500.0,1500.0,1000.0,1500.0,10.0
16:27:51,AUTO,0.06305088102817535,-0.008531774743460119,0.017173321801237762,0.016936499625444412,0.013131336076185107,-0.021002561203204095,-35.363261775,149.165239225,1941.25,-6.538487076759338,1.5917101353406906,0.75,240.0,0.0,-0.017629699141252786,0.25175000727176666,0.3177358992397785,83.0,1.140765756368637,0.75,1.0,1.0,1.0,1.0,0.0,1500.0,1500.0,1000.0,1500.0,10.0
16:27:52,AUTO,0.003999336855486035,0.006374987307935953,-0.05648471415042877,-0.06087544374167919,-0.014181132894009352,-0.02464223187416792,-35.3632611,149.16524420000002,3417.0,-10.679525375366211,1.2161997556686401,0.0,256.5,0.0,-0.0443925466388464,0.3320000171661377,0.2843810096383095,81.0,1.1408714652061462,356.0,1.0,1.0,1.0,1.0,0.0,1500.0,1500.0,1000.0,1500.0,10.0
16:27:53,AUTO,-0.04849865846335888,0.0026562743878457695,-0.07352002337574959,-0.035235918941907585,-0.0012263401004020125,-0.02086379542015493,-35.3632611,149.16524499999997,4306.25,-8.888493299484253,1.3945235908031464,0.0,257.75,0.0,-0.06418960634618998,0.13325000694021583,0.13655920093879104,80.75,1.1455764472484589,355.25,1.0,1.0,1.0,1.0,0.0,1500.0,1500.0,1000.0,1500.0,10.0
16:27:54,AUTO,-0.035107262432575226,0.0006242960516829044,-0.08624299615621567,0.025608064606785774,-0.000731516134692356,0.003027512924745679,-35.36326135,149.1652414,5795.5,-3.9268757104873657,1.0465229749679565,0.0,252.5,0.0,-0.1047045886516571,0.36900001764297485,0.3576773852109909,79.5,1.1552317142486572,355.0,1.0,1.0,1.0,1.0,0.0,1500.0,1500.0,1000.0,1500.0,10.0
16:27:55,AUTO,-0.016691152239218354,0.0007741938607068732,-0.08563999645411968,0.021560519002377987,0.0006619499763473868,0.002680271805729717,-35.363261650000005,149.16523865,6697.0,-2.0134500563144684,0.7640704661607742,0.0,215.75,0.0,-0.13346252404153347,0.32375001162290573,0.2839323692023754,78.5,1.163379281759262,355.0,1.0,1.0,1.0,1.0,0.0,1500.0,1500.0,1000.0,1500.0,10.0
16:27:56,AUTO,0.0012526489372248761,0.0005737289466196671,-0.08750612661242485,0.00887453043833375,-0.0006850296049378812,-0.0024413062492385507,-35.36326205,149.16523575,8208.0,-0.1717162635177374,0.5213587582111359,0.0,98.5,0.0,-0.19263488054275513,0.14550000429153442,0.10931602492928505,77.0,1.1698875427246094,354.5,1.0,1.0,1.0,1.0,0.0,1500.0,1500.0,1000.0,1500.0,10.0
16:27:57,AUTO,0.005077394074760377,0.000127176002933993,-0.09360979869961739,0.0037284345598891377,-0.00023660622537136078,-0.007236324599944055,-35.3632621,149.165235075,9118.75,0.4507323130965233,0.5618311762809753,0.0,93.75,0.0,-0.23178283125162125,0.06575000286102295,0.03793109720572829,76.0,1.1732051372528076,354.0,1.0,1.0,1.0,1.0,0.0,1500.0,1500.0,1000.0,1500.0,10.0
16:27:58,AUTO,0.0077873836271464825,0.00022244933643378317,-0.11025495827198029,0.0025613470061216503,0.0006988520035520196,-0.012160227634012699,-35.3632621,149.1652348,10628.0,1.2103692889213562,0.7846964597702026,0.0,95.0,0.0,-0.29657988250255585,0.020000001415610313,0.025104074738919735,74.0,1.1780772805213928,353.0,1.0,1.0,1.0,1.0,0.0,1500.0,1500.0,1000.0,1500.0,10.0
16:27:59,AUTO,0.008364033186808228,0.0009557076409691945,-0.12312902510166168,3.250692680012435e-05,0.00153726851567626,-0.014561672462150455,-35.363262049999996,149.165234875,11541.0,1.5361225306987762,0.9548245519399643,0.0,98.0,0.0,-0.3391232192516327,0.03125000046566129,0.04133696388453245,73.0,1.1811487674713135,352.5,1.0,1.0,1.0,1.0,0.0,1500.0,1500.0,1000.0,1500.0,10.0
16:28:00,AUTO,0.008114479016512632,0.0031866945791989565,-0.1470310166478157,5.7969504268839955e-05,0.002762177842669189,-0.018785457126796246,-35.36326185,149.16523525000002,13060.0,1.8683903813362122,1.2014910578727722,0.0,105.5,0.0,-0.41013792157173157,0.039000000804662704,0.053642457351088524,71.0,1.1850579380989075,351.0,1.0,1.0,1.0,1.0,0.0,1500.0,1500.0,1000.0,1500.0,10.0
16:28:01,AUTO,0.007834075950086117,0.0043429258512333035,-0.16155512630939484,0.0005225934874033555,0.0013424869830487296,-0.017601456958800554,-35.36326175,149.16523555,13971.5,1.9553560614585876,1.2814179956912994,0.0,110.25,0.0,-0.45260680466890335,0.036500001326203346,0.05794499162584543,70.25,1.1863299906253815,350.25,1.0,1.0,1.0,1.0,0.0,1500.0,1500.0,1000.0,1500.0,10.0
16:28:02,AUTO,0.006888036150485277,0.004719357239082456,-0.18376721441745758,-0.0008020973182283342,0.001245821884367615,-0.01812554430216551,-35.3632617,149.16523604999998,15495.0,1.9428251385688782,1.2587197422981262,0.0,115.5,0.0,-0.5242474377155304,0.03550000116229057,0.06314906105399132,68.0,1.1883593201637268,349.0,1.0,1.0,1.0,1.0,0.0,1500.0,1500.0,1000.0,1500.0,10.0
16:28:03,AUTO,0.006234171451069415,0.00482662848662585,-0.19649164006114006,-7.557528442703187e-05,0.000685804319800809,-0.019448898267000914,-35.3632617,149.1652363,16410.5,1.9100784361362457,1.2306528687477112,0.0,119.25,0.0,-0.5536718666553497,0.032750001177191734,0.06113711278885603,68.0,1.1895531713962555,348.25,1.0,1.0,1.0,1.0,0.0,1500.0,1500.0,1000.0,1500.0,10.0
16:28:04,AUTO,0.0047113599721342325,0.0047386037185788155,-0.21732795238494873,-0.0005643321492243558,0.0011368300474714488,-0.017241232097148895,-35.3632618,149.1652367,17931.5,1.8243060111999512,1.1851685643196106,0.0,125.5,0.0,-0.578939825296402,0.02650000061839819,0.05439675971865654,68.0,1.1905142664909363,347.0,1.0,1.0,1.0,1.0,0.0,1500.0,1500.0,1000.0,1500.0,10.0
16:28:05,AUTO,0.004142421297729015,0.004715130431577563,-0.22976713627576828,-0.0003659752255771309,0.0006588381074834615,-0.0166597249917686,-35.3632618,149.16523684999999,18844.25,1.7905493676662445,1.1569180488586426,0.0,129.5,0.0,-0.5852523595094681,0.02250000135973096,0.0495495954528451,68.0,1.1917246282100677,346.25,1.0,1.0,1.0,1.0,0.0,1500.0,1500.0,1000.0,1500.0,10.0
16:28:06,AUTO,0.0029777383897453547,0.003949765814468265,-0.24994438141584396,-0.0007972657622303814,0.0011694833810906857,-0.01639558281749487,-35.3632619,149.16523705,20364.5,1.7252808213233948,1.090234398841858,0.0,135.5,0.0,-0.5911077558994293,0.018500001169741154,0.04160923324525356,68.0,1.1939608454704285,345.0,1.0,1.0,1.0,1.0,0.0,1500.0,1500.0,1000.0,1500.0,10.0
16:28:07,AUTO,0.0029788350802846253,0.00305844604736194,-0.26122357696294785,-6.483880861196667e-05,-0.0009301795071223751,-0.01467792084440589,-35.363261924999996,149.16523715,21277.0,1.706719547510147,1.0121414512395859,0.0,134.5,0.0,-0.5918359160423279,0.013750000623986125,0.036149621941149235,68.0,1.1947698891162872,344.5,1.0,1.0,1.0,1.0,0.0,1500.0,1500.0,1000.0,1500.0,10.0
16:28:08,AUTO,0.005563430022448301,0.004467802355065942,-0.2726433724164963,0.006368356524035335,0.005162238026969135,0.010968894930556417,-35.363262,149.1652372,22797.0,1.644209384918213,0.8832385540008545,0.0,129.0,0.0,-0.5890551507472992,0.00800000037997961,0.03563758358359337,68.0,1.1909902691841125,344.0,1.0,1.0,1.0,1.0,0.0,1500.0,1500.0,1000.0,1500.0,10.0
16:28:09,AUTO,0.0062519501661881804,0.00521948270034045,-0.25785137712955475,-0.0012329961027717218,0.00011044740676879883,0.024098239839076996,-35.3632621,149.16523735,23706.25,1.2152593731880188,0.661535918712616,0.0,136.75,0.0,-0.5836559981107712,0.02600000100210309,0.05212158523499966,69.0,1.1890541911125183,344.75,1.0,1.0,1.0,1.0,0.0,1500.0,1500.0,1000.0,1500.0,10.0
16:28:10,AUTO,-0.00011074426583945751,0.007453804253600538,-0.21793024986982346,-0.004881232394836843,0.008681449602590874,0.061811002902686596,-35.363262250000005,149.16523775000002,25214.5,0.6436913311481476,0.2787008658051491,0.0,244.5,0.0,-0.5756640434265137,0.030500001274049282,0.04940606839954853,69.0,1.1796894669532776,347.0,1.0,1.0,1.0,1.0,0.0,1500.0,1500.0,1000.0,1500.0,10.0
16:28:11,AUTO,-0.0005237312434474006,0.00426842494198354,-0.1650402434170246,0.006921667023561895,-0.012479763710871339,0.0476343734189868,-35.36326244999999,149.1652378,26116.75,0.8570903986692429,-0.5224793553352356,0.0,312.0,0.0,-0.5644293278455734,0.040500001050531864,0.050191108137369156,69.0,1.1896416246891022,350.0,1.0,1.0,1.0,1.0,0.0,1500.0,1500.0,1000.0,1500.0,10.0
16:28:12,AUTO,0.0035394151927903295,-0.002308487775735557,-0.13949207961559296,0.002252509875688702,-0.00034345328458584845,0.012165721971541643,-35.3632627,149.1652378,27631.5,0.5907435715198517,-0.5207348167896271,0.0,340.0,0.0,-0.5593725442886353,0.00800000037997961,0.016586029902100563,69.0,1.1907426714897156,351.5,1.0,1.0,1.0,1.0,0.0,1500.0,1500.0,1000.0,1500.0,10.0
16:28:13,AUTO,0.003432811237871647,-0.0022970103891566396,-0.13146384432911873,-0.00010908197145909071,0.0007428872922901064,0.012016614899039268,-35.363262649999996,149.1652378,28540.5,0.4158211126923561,-0.3764500021934509,0.0,329.75,0.0,-0.5557720810174942,0.022000000812113285,0.024470787961035967,69.0,1.1903352439403534,352.0,1.0,1.0,1.0,1.0,0.0,1500.0,1500.0,1000.0,1500.0,10.0
16:28:14,AUTO,0.0024373194901272655,-0.0010448824614286423,-0.11911241710186005,0.0006963212508708239,0.001630353566724807,0.010564370546489954,-35.36326235,149.1652378,30056.0,0.2370021641254425,-0.16789055615663528,0.0,256.0,0.0,-0.5488561987876892,0.029000001028180122,0.02205646876245737,69.0,1.1909533143043518,353.0,1.0,1.0,1.0,1.0,0.0,1500.0,1500.0,1000.0,1500.0,10.0
16:28:15,AUTO,0.002509496873244643,-0.0001288974399358267,-0.11263093166053295,0.0006374261865857989,0.0014143753214739263,0.008587633958086371,-35.36326220000001,149.1652378,30965.75,0.2128434143960476,-0.07573524210602045,0.0,209.25,0.0,-0.5438757091760635,0.02325000101700425,0.015237391460686922,69.75,1.1903806328773499,353.0,1.0,1.0,1.0,1.0,0.0,1500.0,1500.0,1000.0,1500.0,10.0
16:28:16,AUTO,0.0025147483684122562,0.00060145856696181,-0.10341563820838928,0.0009753975900821388,-2.2124440874904394e-05,0.007994855521246791,-35.36326205,149.1652377,32476.5,0.1778102144598961,-0.00011591543443500996,0.0,181.0,0.0,-0.5385155975818634,0.012500000186264515,0.012116732075810432,70.0,1.1909083724021912,354.0,1.0,1.0,1.0,1.0,0.0,1500.0,1500.0,1000.0,1500.0,10.0
16:28:17,AUTO,0.0021501081355381757,0.0009700798691483214,-0.09837564453482628,-0.0007544170366600156,0.0004507472913246602,0.00729517440777272,-35.363262,149.1652377,33386.25,0.1517045646905899,0.0340399625711143,0.0,177.25,0.0,-0.5344256460666656,0.007750000339001417,0.01275581493973732,70.0,1.1903804242610931,354.0,1.0,1.0,1.0,1.0,0.0,1500.0,1500.0,1000.0,1500.0,10.0
16:28:18,AUTO,0.001872338936664164,0.0009603723010513932,-0.09068713709712029,0.0010350006050430238,-3.052176907658577e-05,0.007509868126362562,-35.363262,149.1652376,34902.0,0.12943606823682785,0.04222477041184902,0.0,172.5,0.0,-0.5262487530708313,0.004500000271946192,0.014455925673246384,70.0,1.190445601940155,354.0,1.0,1.0,1.0,1.0,0.0,1500.0,1500.0,1000.0,1500.0,10.0
16:28:19,AUTO,0.0016438485181424767,0.0016611471364740282,-0.08641880750656128,0.00044820032780990005,0.001534109382191673,0.006681168801151216,-35.363261975,149.1652376,35816.0,0.11790065839886665,0.08450682181864977,0.0,170.0,0.0,-0.5242205709218979,0.005000000353902578,0.015339669771492481,70.0,1.190431147813797,354.75,1.0,1.0,1.0,1.0,0.0,1500.0,1500.0,1000.0,1500.0,10.0
16:28:20,AUTO,0.0017578862607479095,0.0021270844154059887,-0.07954702898859978,0.0007716819236520678,0.00018483068561181426,0.006622102577239275,-35.3632619,149.1652375,37325.5,0.12481414526700974,0.11666305363178253,0.0,165.0,0.0,-0.5163586437702179,0.008500000461935997,0.019484883174300194,70.0,1.1903022527694702,355.0,1.0,1.0,1.0,1.0,0.0,1500.0,1500.0,1000.0,1500.0,10.0
16:28:21,AUTO,0.0018403810681775212,0.0020371423743199557,-0.07587545737624168,0.0003037871792912483,7.593774353154004e-05,0.00532940577249974,-35.3632619,149.1652375,38233.75,0.126901563256979,0.11654181405901909,0.0,161.5,0.0,-0.5123541057109833,0.010000000707805157,0.020533257629722357,70.0,1.189778745174408,355.0,1.0,1.0,1.0,1.0,0.0,1500.0,1500.0,1000.0,1500.0,10.0
16:28:22,AUTO,0.002215551445260644,0.0009936752321664244,-0.0698557160794735,0.0003757872327696532,0.0004213587671983987,0.005234493175521493,-35.3632619,149.16523745,39748.5,0.13974132388830185,0.060355138033628464,0.0,152.5,0.0,-0.5062402188777924,0.007000000216066837,0.01935741212219,70.5,1.1900150775909424,355.5,1.0,1.0,1.0,1.0,0.0,1500.0,1500.0,1000.0,1500.0,10.0
16:28:23,AUTO,0.0022121293586678803,0.0008132533403113484,-0.0666444692760706,0.0013187481672503054,0.0007423399947583675,0.005092049948871136,-35.363261949999995,149.1652374,40657.0,0.13927244022488594,0.05062479618936777,0.0,149.5,0.0,-0.5023882985115051,0.0027500001015141606,0.01797070261090994,71.0,1.1894028186798096,356.0,1.0,1.0,1.0,1.0,0.0,1500.0,1500.0,1000.0,1500.0,10.0
16:28:24,AUTO,0.002228519879281521,0.0003691213933052495,-0.06145600043237209,0.00034694193163886666,0.00023763050558045506,0.005494416691362858,-35.363262,149.1652374,42171.0,0.13515878468751907,0.02538363914936781,0.0,146.0,0.0,-0.4958154261112213,0.003000000026077032,0.016468887217342854,71.0,1.1894116401672363,356.0,1.0,1.0,1.0,1.0,0.0,1500.0,1500.0,1000.0,1500.0,10.0
16:28:25,AUTO,0.0024406227748841047,0.00046880038280505687,-0.05861338973045349,0.0006151290144771338,0.0006734364433214068,0.004153354268055409,-35.363262,149.1652374,43086.0,0.15196209028363228,0.024433778133243322,0.0,144.0,0.0,-0.49406126886606216,0.00525000027846545,0.01611687010154128,71.0,1.1899334788322449,356.0,1.0,1.0,1.0,1.0,0.0,1500.0,1500.0,1000.0,1500.0,10.0
16:28:26,AUTO,0.0028270749608054757,0.0003737913357326761,-0.05398036167025566,0.0017358658951707184,0.0023411535657942295,0.004342308267951012,-35.363262,149.1652374,44600.5,0.17608676105737686,0.025663141161203384,0.0,141.5,0.0,-0.48771238327026367,0.006000000052154064,0.017357677221298218,71.0,1.1895620822906494,356.0,1.0,1.0,1.0,1.0,0.0,1500.0,1500.0,1000.0,1500.0,10.0
16:28:27,AUTO,0.0028007604996673763,0.0009105859498959035,-0.05155866127461195,0.0003968613891629502,0.0011832999007310718,0.0035299115697853267,-35.363262,149.1652374,45509.0,0.17383138090372086,0.050487381406128407,0.0,144.5,0.0,-0.48369506001472473,0.005750000127591193,0.01889900676906109,71.0,1.1888468265533447,356.75,1.0,1.0,1.0,1.0,0.0,1500.0,1500.0,1000.0,1500.0,10.0
16:28:28,AUTO,0.0027041842695325613,0.0008627033676020801,-0.04756286181509495,0.0008865343406796455,0.0007812461990397424,0.004093102645128965,-35.363262,149.1652374,47023.0,0.16564927250146866,0.051148200407624245,0.0,146.0,0.0,-0.477048322558403,0.003000000026077032,0.019896778278052807,71.0,1.1894692778587341,357.0,1.0,1.0,1.0,1.0,0.0,1500.0,1500.0,1000.0,1500.0,10.0
16:28:29,AUTO,0.002743238292168826,0.0008921634289436042,-0.04537436459213495,0.0004573978076223284,0.0008978669065982103,0.004117904813028872,-35.363262,149.1652374,47932.25,0.1682322509586811,0.057987029664218426,0.0,147.0,0.0,-0.4738244563341141,0.003750000149011612,0.019797072745859623,71.0,1.1899469792842865,357.0,1.0,1.0,1.0,1.0,0.0,1500.0,1500.0,1000.0,1500.0,10.0
16:28:30,AUTO,0.0025555704487487674,0.002031453885138035,-0.042007120326161385,-0.0010561643866822124,0.0012162441853433847,0.003332393360324204,-35.363261949999995,149.1652374,49446.5,0.15875372290611267,0.1180110052227974,0.0,151.5,0.0,-0.4675854444503784,0.004500000271946192,0.02189561352133751,72.0,1.1888383626937866,357.0,1.0,1.0,1.0,1.0,0.0,1500.0,1500.0,1000.0,1500.0,10.0
16:28:31,AUTO,0.0020129707700107247,0.0022792888921685517,-0.03984324634075165,0.00023953034542500973,0.00042865058640018106,0.0037276172661222517,-35.3632619,149.1652374,50357.75,0.14016123861074448,0.11976589076220989,0.0,154.75,0.0,-0.4619140550494194,0.007250000257045031,0.023192016407847404,72.0,1.1893211007118225,357.0,1.0,1.0,1.0,1.0,0.0,1500.0,1500.0,1000.0,1500.0,10.0
16:28:32,AUTO,0.00195194041589275,0.0013751190854236484,-0.03662640042603016,-0.00029722251929342747,-0.001645038981223479,0.0034143533557653427,-35.3632619,149.1652374,51869.5,0.13431768864393234,0.06337747536599636,0.0,153.5,0.0,-0.4570605456829071,0.010500000789761543,0.023088175803422928,72.0,1.190055787563324,357.0,1.0,1.0,1.0,1.0,0.0,1500.0,1500.0,1000.0,1500.0,10.0
16:28:33,AUTO,0.001975482067791745,0.0008810644067125395,-0.0348581587895751,-0.0006807720637880266,0.00030947450431995094,0.0029488035943359137,-35.363261924999996,149.1652374,52778.0,0.13337095826864243,0.04070316255092621,0.0,149.5,0.0,-0.4531921297311783,0.0057500002440065145,0.019913571886718273,72.0,1.1897805631160736,357.75,1.0,1.0,1.0,1.0,0.0,1500.0,1500.0,1000.0,1500.0,10.0
16:28:34,AUTO,0.002037276397459209,0.0002497718742233701,-0.03221208229660988,-0.00017618743004277349,-3.4398981370031834e-05,0.0029215833637863398,-35.363262,149.1652374,54292.0,0.13419286906719208,0.012781747616827488,0.0,145.0,0.0,-0.4468945264816284,0.0020000000949949026,0.016923872753977776,72.0,1.1893385648727417,358.0,1.0,1.0,1.0,1.0,0.0,1500.0,1500.0,1000.0,1500.0,10.0
16:28:35,AUTO,0.0020387881668284535,0.0002183436881750822,-0.030839161481708288,0.00013044544903095812,0.00042312865843996406,0.0026418316701892763,-35.363262,149.1652374,55201.0,0.13455424457788467,0.012106403708457947,0.0,145.0,0.0,-0.4431750401854515,0.004750000312924385,0.015970144886523485,72.0,1.188887506723404,358.0,1.0,1.0,1.0,1.0,0.0,1500.0,1500.0,1000.0,1500.0,10.0
16:28:36,AUTO,0.002138951327651739,0.0001707207557046786,-0.028555607423186302,0.0010248561156913638,0.00107825972372666,0.0021921854349784553,-35.363262,149.1652374,56715.5,0.1353638768196106,0.015020093880593777,0.0,146.0,0.0,-0.4372265487909317,0.007000000216066837,0.0161723168566823,72.0,1.1892412900924683,358.0,1.0,1.0,1.0,1.0,0.0,1500.0,1500.0,1000.0,1500.0,10.0
16:28:37,AUTO,0.0020980991539545357,0.00037733355929958634,-0.02737123752012849,-0.0001762561732903123,0.00010430635302327573,0.0024139354354701936,-35.363262,149.1652374,57626.75,0.13418834283947945,0.025157650699838996,0.0,146.75,0.0,-0.4316088780760765,0.007000000216066837,0.016506511252373457,72.0,1.1889767348766327,358.0,1.0,1.0,1.0,1.0,0.0,1500.0,1500.0,1000.0,1500.0,10.0
16:28:38,AUTO,0.002260946319438517,0.000877543177921325,-0.02568574994802475,0.0011923631536774337,9.432050865143538e-05,0.0017435728223063052,-35.363262,149.1652374,59138.5,0.14649725705385208,0.041634492576122284,0.0,148.5,0.0,-0.42690183222293854,0.0035000001080334187,0.018641856499016285,73.0,1.1895310282707214,358.0,1.0,1.0,1.0,1.0,0.0,1500.0,1500.0,1000.0,1500.0,10.0
16:28:39,AUTO,0.0025805113837122917,0.000759924398153089,-0.024522559717297554,0.0009781127446331084,0.0009814699296839535,0.002464324817992747,-35.363262,149.1652374,60047.75,0.16230518743395805,0.0424411790445447,0.0,146.5,0.0,-0.42375242710113525,0.0025000000605359674,0.01964078424498439,73.0,1.1892359554767609,358.0,1.0,1.0,1.0,1.0,0.0,1500.0,1500.0,1000.0,1500.0,10.0
16:28:40,AUTO,0.00259638880379498,0.0019083949737250805,-0.022816013544797897,-0.00018204457592219114,-0.0007360681775026023,0.00390513613820076,-35.363262,149.1652374,61535.0,0.1588509976863861,0.10812771320343018,0.0,151.0,0.0,-0.4175683557987213,0.003000000026077032,0.023200001567602158,73.0,1.1896363496780396,358.0,1.0,1.0,1.0,1.0,0.0,1500.0,1500.0,1000.0,1500.0,10.0
16:28:41,AUTO,0.0025400551385246217,0.0019525857642292976,-0.02196237212046981,0.0006045490736141801,0.0004787850775755942,0.00160894900909625,-35.3632619,149.1652374,62294.0,0.15337039157748222,0.11456657946109772,0.0,151.75,0.0,-0.41346556693315506,0.006250000209547579,0.02405967330560088,73.0,1.1894334554672241,358.0,1.0,1.0,1.0,1.0,0.0,1500.0,1500.0,1000.0,1500.0,10.0
16:28:42,AUTO,0.0025172086898237467,0.0019331741495989263,-0.02070748060941696,0.0005906411679461598,-0.0007352687534876168,0.002227049437351525,-35.3632619,149.1652374,63505.0,0.1520031839609146,0.11649049073457718,0.0,152.0,0.0,-0.4079614132642746,0.008500000461935997,0.02444540522992611,73.0,1.1892823576927185,358.0,1.0,1.0,1.0,1.0,0.0,1500.0,1500.0,1000.0,1500.0,10.0
16:28:43,AUTO,0.002149759035091847,0.000955437688389793,-0.019493098836392164,0.0005265125655569136,-2.3621803848072886e-05,0.0015172499843174592,-35.3632619,149.1652374,64715.5,0.13168234378099442,0.06815019249916077,0.0,150.75,0.0,-0.4043969586491585,0.007250000373460352,0.0223533371463418,73.0,1.1896155774593353,358.0,1.0,1.0,1.0,1.0,0.0,1500.0,1500.0,1000.0,1500.0,10.0
16:28:44,AUTO,0.002050690585747361,0.0008525504090357572,-0.018512079492211342,0.0008466913131996989,0.0002598928986117244,0.000769659411162138,-35.3632619,149.1652374,65928.0,0.1279435008764267,0.058603812009096146,0.0,150.0,0.0,-0.40009520947933197,0.0010000000474974513,0.018851522356271744,73.0,1.189470887184143,358.0,1.0,1.0,1.0,1.0,0.0,1500.0,1500.0,1000.0,1500.0,10.0
16:28:45,AUTO,0.0020147108589299023,0.0008623191679362208,-0.01755219092592597,3.386972821317613e-05,0.00012847280595451593,0.0019215082720620558,-35.3632619,149.1652374,67139.75,0.12846001610159874,0.05417612940073013,0.0,150.0,0.0,-0.3952978476881981,0.0005000000237487257,0.01797299925237894,73.0,1.1896686553955078,358.75,1.0,1.0,1.0,1.0,0.0,1500.0,1500.0,1000.0,1500.0,10.0
16:28:46,AUTO,0.00198375154286623,0.0007563868130091578,-0.016794471070170403,0.0024166954681277275,-1.4936900697648525e-05,0.00029906927375122905,-35.3632619,149.1652374,68351.0,0.12839195132255554,0.04946325533092022,0.0,149.0,0.0,-0.38969480991363525,0.0010000000474974513,0.017880764789879322,73.5,1.189280927181244,359.0,1.0,1.0,1.0,1.0,0.0,1500.0,1500.0,1000.0,1500.0,10.0
16:28:47,AUTO,0.002035884012002498,0.000703048674040474,-0.015857218764722347,0.0005519955593626946,0.00015321988030336797,0.0013265622837934643,-35.3632619,149.1652374,69563.5,0.12813518941402435,0.045074593275785446,0.0,149.0,0.0,-0.3836608752608299,0.0020000000949949026,0.01825039042159915,74.0,1.1892044842243195,359.0,1.0,1.0,1.0,1.0,0.0,1500.0,1500.0,1000.0,1500.0,10.0
16:28:48,AUTO,0.0019202233524993062,0.0006622642104048282,-0.015080067794770002,-0.0012902052258141339,-0.0009008442284539342,0.0018349032616242766,-35.3632619,149.1652374,70777.0,0.11994419246912003,0.04259299486875534,0.0,149.5,0.0,-0.3782104551792145,0.0025000000605359674,0.018678128719329834,74.0,1.1889183521270752,359.0,1.0,1.0,1.0,1.0,0.0,1500.0,1500.0,1000.0,1500.0,10.0
16:28:49,AUTO,0.0019541724759619683,0.000651473441394046,-0.014302754309028387,-0.000638665835140273,4.400336183607578e-05,0.002060554688796401,-35.3632619,149.1652374,71988.25,0.1243280041962862,0.04229417536407709,0.0,149.0,0.0,-0.3730468675494194,0.003000000026077032,0.018642123322933912,74.0,1.1885648965835571,359.0,1.0,1.0,1.0,1.0,0.0,1500.0,1500.0,1000.0,1500.0,10.0
16:28:50,AUTO,0.002011562930420041,0.0005812058807350695,-0.013564105611294508,-0.0005726261879317462,-9.122188203036785e-06,0.0024382423725910485,-35.3632619,149.1652374,73200.5,0.12649238109588623,0.04598287492990494,0.0,149.0,0.0,-0.3685620129108429,0.003000000026077032,0.018780496902763844,74.0,1.188789188861847,359.0,1.0,1.0,1.0,1.0,0.0,1500.0,1500.0,1000.0,1500.0,10.0
16:28:51,AUTO,0.0019657119119074196,0.0006311679171631113,-0.013005979591980577,0.0015196087770164013,0.00020666056661866605,0.0014096370723564178,-35.3632619,149.1652374,74414.25,0.12335218489170074,0.04423806257545948,0.0,149.5,0.0,-0.36384520679712296,0.003000000026077032,0.01902308315038681,74.0,1.1895176768302917,359.0,1.0,1.0,1.0,1.0,0.0,1500.0,1500.0,1000.0,1500.0,10.0
16:28:52,AUTO,0.002247508382424712,0.0006969081878196448,-0.012068846262991428,-0.0036714484449476004,-3.161258064210415e-07,0.001755537698045373,-35.3632619,149.1652374,75626.5,0.15326280891895294,0.033697256818413734,0.0,146.5,0.0,-0.35932859778404236,0.0025000000605359674,0.01937153749167919,74.0,1.189903199672699,359.0,1.0,1.0,1.0,1.0,0.0,1500.0,1500.0,1000.0,1500.0,10.0
16:28:53,AUTO,0.0025463197380304337,0.0006140193727333099,-0.011099855648353696,0.002109725697664544,0.00013851688709110022,0.0013441784540191293,-35.3632619,149.1652374,76835.75,0.17111637070775032,0.02417548978701234,0.0,144.25,0.0,-0.3540380746126175,0.0017500000831205398,0.020206609275192022,74.0,1.1900878250598907,359.0,1.0,1.0,1.0,1.0,0.0,1500.0,1500.0,1000.0,1500.0,10.0
16:28:54,AUTO,0.002582564135082066,0.0006439778080675751,-0.010597840417176485,-0.00018804374849423766,0.00037873053224757314,0.001697633182629943,-35.3632619,149.1652374,78050.5,0.16450529545545578,0.02896108478307724,0.0,145.5,0.0,-0.35029052197933197,0.0035000001080334187,0.020649091340601444,74.0,1.1895719766616821,359.0,1.0,1.0,1.0,1.0,0.0,1500.0,1500.0,1000.0,1500.0,10.0
16:28:55,AUTO,0.0026171306963078678,0.0008437997748842463,-0.010148771107196808,0.0007453158759744838,0.0015127283404581249,0.0011335422459524125,-35.3632619,149.1652374,79265.5,0.15873727574944496,0.04209263389930129,0.0,146.75,0.0,-0.346616193652153,0.004000000189989805,0.020388205535709858,74.75,1.1895342469215393,359.0,1.0,1.0,1.0,1.0,0.0,1500.0,1500.0,1000.0,1500.0,10.0
16:28:56,AUTO,0.0024532548850402236,0.0018254293827340007,-0.009837621357291937,-0.0012262110831215978,0.0005600314470939338,0.0002886638976633549,-35.3632619,149.1652374,80477.5,0.15355143696069717,0.09860781952738762,0.0,151.0,0.0,-0.34150877594947815,0.004500000271946192,0.02184721827507019,75.0,1.1894559860229492,359.0,1.0,1.0,1.0,1.0,0.0,1500.0,1500.0,1000.0,1500.0,10.0
16:28:57,AUTO,0.002089712768793106,0.0019406820938456804,-0.009358444018289447,0.0004978417418897152,0.00062488456023857,0.001010115462122485,-35.3632619,149.1652374,81691.5,0.13120094314217567,0.11136696301400661,0.0,154.5,0.0,-0.335052490234375,0.007250000257045031,0.023199083283543587,75.0,1.189059168100357,359.0,1.0,1.0,1.0,1.0,0.0,1500.0,1500.0,1000.0,1500.0,10.0
16:28:58,AUTO,0.001963414833880961,0.0015110283275134861,-0.009098315611481667,0.0019168176222592592,0.00035537395160645247,0.001352942839730531,-35.3632619,149.1652374,82901.5,0.12583185359835625,0.08546771109104156,0.0,154.5,0.0,-0.33061034977436066,0.009000000543892384,0.02277431357651949,75.0,1.1891514658927917,359.0,1.0,1.0,1.0,1.0,0.0,1500.0,1500.0,1000.0,1500.0,10.0
16:28:59,AUTO,0.001975352206500247,0.0006557539018103853,-0.008591502904891968,0.000437668219092302,1.6125821275636554e-05,0.0013533775927498937,-35.3632619,149.1652374,84113.0,0.12385938875377178,0.05209298990666866,0.0,150.75,0.0,-0.32655028253793716,0.004000000131782144,0.01950704399496317,75.0,1.1897400319576263,359.0,1.0,1.0,1.0,1.0,0.0,1500.0,1500.0,1000.0,1500.0,10.0
16:29:00,AUTO,0.0019687700551003218,0.0008095306402537972,-0.008362057618796825,0.0003923265030607581,0.0011945883743464947,0.0009874433744698763,-35.3632619,149.1652374,85326.0,0.12349192425608635,0.0549581591039896,0.0,150.0,0.0,-0.3217431604862213,0.0010000000474974513,0.017750431783497334,75.0,1.1888572573661804,359.0,1.0,1.0,1.0,1.0,0.0,1500.0,1500.0,1000.0,1500.0,10.0
16:29:01,AUTO,0.0019368529901839793,0.0006829330814071,-0.007928780280053616,0.00022285719751380384,-0.0003889677464030683,0.0006108728994149715,-35.3632619,149.1652374,86534.75,0.12050820887088776,0.050085256807506084,0.0,149.0,0.0,-0.3163842707872391,0.0020000000949949026,0.017843022476881742,75.0,1.1877425909042358,359.0,1.0,1.0,1.0,1.0,0.0,1500.0,1500.0,1000.0,1500.0,10.0
16:29:02,AUTO,0.0019519161432981491,0.0006946928915567696,-0.007678354857489467,-0.0006593177677132189,0.00023200386203825474,0.001494774827733636,-35.3632619,149.1652374,87745.5,0.11937054619193077,0.04996472969651222,0.0,149.0,0.0,-0.3104638606309891,0.0025000000605359674,0.018280654214322567,75.0,1.187882423400879,359.0,1.0,1.0,1.0,1.0,0.0,1500.0,1500.0,1000.0,1500.0,10.0
16:29:03,AUTO,0.0018818654061760753,0.0007055375463096425,-0.007500605657696724,0.0009354949288535863,0.0001972249010577798,0.0016794001567177474,-35.3632619,149.1652374,88957.25,0.11783091351389885,0.04893962573260069,0.0,149.0,0.0,-0.3057641535997391,0.003000000026077032,0.01866744225844741,76.0,1.1888777017593384,359.0,1.0,1.0,1.0,1.0,0.0,1500.0,1500.0,1000.0,1500.0,10.0
16:29:04,AUTO,0.0018368432065472007,0.0006821588613092899,-0.007431244011968374,-0.0005075446097180247,-0.00014482432743534446,0.0007589793531224132,-35.3632619,149.1652374,90169.5,0.12178431078791618,0.04366316273808479,0.0,148.5,0.0,-0.3014453053474426,0.003000000026077032,0.01890070177614689,76.0,1.1884026527404785,359.0,1.0,1.0,1.0,1.0,0.0,1500.0,1500.0,1000.0,1500.0,10.0
16:29:05,AUTO,0.0021765842684544623,0.0006223071686690673,-0.007099450449459255,0.0008967052272055298,0.0005388549470808357,0.0015790069592185318,-35.3632619,149.1652374,91384.0,0.1396091803908348,0.03891936596482992,0.0,147.0,0.0,-0.29491209983825684,0.0032500000670552254,0.019276973325759172,76.0,1.1876940727233887,359.0,1.0,1.0,1.0,1.0,0.0,1500.0,1500.0,1000.0,1500.0,10.0
16:29:06,AUTO,0.0024868223117664456,0.0006113358831498772,-0.006724654929712415,0.0004414693685248494,0.00040404265746474266,0.00039557775016874075,-35.3632619,149.1652374,92593.5,0.1520782709121704,0.04477900452911854,0.0,145.0,0.0,-0.2899804562330246,0.003000000026077032,0.020195207558572292,76.0,1.1872196793556213,359.0,1.0,1.0,1.0,1.0,0.0,1500.0,1500.0,1000.0,1500.0,10.0
16:29:07,AUTO,0.0024792146286927164,0.000634547439403832,-0.00655623571947217,-0.0004510396101977676,-8.018896915018559e-05,0.0008783843368291855,-35.3632619,149.165237325,93804.25,0.14766016229987144,0.049727161414921284,0.0,146.0,0.0,-0.2851025313138962,0.0035000001080334187,0.020656170323491096,76.0,1.187409520149231,359.0,1.0,1.0,1.0,1.0,0.0,1500.0,1500.0,1000.0,1500.0,10.0
16:29:08,AUTO,0.0024252948351204395,0.0008175084949471056,-0.0065390560775995255,0.0005362420924939215,0.00021482148440554738,-0.00029824755620211363,-35.3632619,149.1652373,95018.0,0.1505211889743805,0.052282797172665596,0.0,146.0,0.0,-0.27958984673023224,0.0035000001080334187,0.020605910569429398,76.0,1.1883689761161804,359.0,1.0,1.0,1.0,1.0,0.0,1500.0,1500.0,1000.0,1500.0,10.0
16:29:09,AUTO,0.0025036429869942367,0.0006404400774044916,-0.006251166108995676,0.0002391883754171431,-0.0002817429485730827,0.001449951290851459,-35.3632619,149.1652373,96234.75,0.15679174661636353,0.045740180648863316,0.0,146.0,0.0,-0.2801489159464836,0.0032500000670552254,0.020300313364714384,71.0,1.1889272630214691,359.0,1.0,1.0,1.0,1.0,0.0,1500.0,1500.0,1000.0,1500.0,10.0
16:29:10,AUTO,-0.006077938945963979,0.009758476138813421,0.012035033898428082,-0.05320896557532251,0.05455294391140342,0.12544790474930778,-35.3632619,149.1652373,97442.5,0.2437066212296486,0.0027858540415763855,0.0,147.5,0.0,-0.38527342677116394,0.003000000142492354,0.026713339611887932,60.0,1.1581482887268066,180.0,1.0,1.0,1.0,1.0,0.0,1500.0,1500.0,1000.0,1500.0,10.0
16:29:11,AUTO,-0.04760768450796604,0.04581861384212971,0.28994612768292427,-0.013674309011548758,-0.05341400019824505,0.3653727322816849,-35.363262575,149.16523627499998,98521.5,5.064779877662659,-3.36617648601532,0.0,89.5,0.0,-0.5772607177495956,0.23525000968948007,0.3098681680858135,45.25,0.866756334900856,16.0,1.0,1.0,1.0,1.0,0.0,1500.0,1500.0,1000.0,1500.0,10.0
16:29:12,AUTO,0.005422557238489389,-0.024527704808861017,0.46228495240211487,0.08035220950841904,-0.0401113408152014,0.05002435512142256,-35.363263700000005,149.16523354999998,99131.5,8.178104877471924,-3.854791283607483,0.0,66.5,0.0,-0.5675976276397705,0.26000000908970833,0.17834647186100483,37.0,0.36712051928043365,26.0,1.0,1.0,1.0,1.0,0.0,1500.0,1500.0,1000.0,1500.0,10.0
16:29:13,AUTO,0.03962394595146179,-0.030148628167808056,0.4589628502726555,0.03214304894208908,0.016514977905899286,-0.03559816721826792,-35.363263425,149.16523339999998,99303.75,6.523189663887024,-1.8444724306464195,0.0,51.0,58.5,-0.36668456345796585,0.14150000549852848,0.18001225218176842,33.5,-0.05586812161800481,26.0,1.0,1.0,1.0,1.0,0.0,1500.0,1500.0,1000.0,1500.0,10.0
16:29:14,AUTO,0.0448272880166769,-0.038103929720818996,0.41248610615730286,-0.18606159090995789,-0.0531088188290596,-0.04916763864457607,-35.36326270000001,149.16523605,99115.0,5.096374988555908,-1.7449151277542114,0.0,31.0,117.0,-0.12444823607802391,0.3075000122189522,0.34183037281036377,33.5,-0.22488287091255188,23.0,1.0,1.0,1.0,1.0,0.0,1500.0,1500.0,1000.0,1500.0,10.0
16:29:15,AUTO,0.032117245718836784,-0.09981701523065567,0.384304903447628,0.03704081475734711,-0.06403342541307211,0.10593903076369315,-35.36326089999999,149.1652401,98893.75,4.559412002563477,-5.074340581893921,2.25,31.0,116.5,0.030219725565984845,0.49250002205371857,0.5461580455303192,33.5,-0.21701516956090927,21.5,1.0,1.0,1.0,1.0,0.0,1500.0,1500.0,1000.0,1500.0,10.0
16:29:16,AUTO,-0.03225977998226881,-0.1935778483748436,0.7561478018760681,0.15349819883704185,-0.0922197699546814,0.389866009587422,-35.36325555,149.1652454,98562.5,2.2524235248565674,-11.294976234436035,24.5,31.0,115.5,0.1295507811009884,0.8755000531673431,1.0150821506977081,32.5,-0.43579328060150146,43.0,1.0,1.0,1.0,1.0,0.0,1500.0,1500.0,1000.0,1500.0,10.0
16:29:17,AUTO,-0.07405709475278854,-0.2769090086221695,0.8892262876033783,-0.0768156573176384,-0.052511362824589014,-0.06393514014780521,-35.3632458,149.16525317499998,97966.5,1.2683221399784088,-16.404372692108154,31.0,31.0,114.5,0.2598901279270649,1.511500060558319,1.6504966020584106,32.0,-0.732769325375557,50.5,1.0,1.0,1.0,1.0,0.0,1500.0,1500.0,1000.0,1500.0,10.0
16:29:18,AUTO,-0.06173316203057766,-0.3139357417821884,0.8263956904411316,0.22548127174377441,-0.023104003630578518,-0.07183873653411865,-35.3632313,149.165264,97089.0,1.6278157234191895,-18.294281005859375,31.0,31.0,112.5,0.4128955006599426,1.9970000386238098,2.107188045978546,32.5,-0.9068132936954498,47.0,1.0,1.0,1.0,1.0,0.0,1500.0,1500.0,1000.0,1500.0,10.0
16:29:19,AUTO,-0.04723556898534298,-0.3266723155975342,0.7877761274576187,-0.23794065415859222,0.0028557885088957846,-0.02359516773140058,-35.3632141,149.1652765,96105.25,2.0248565077781677,-18.86376428604126,31.0,31.0,110.25,0.5298412963747978,2.323250114917755,2.365238308906555,33.0,-0.9692832380533218,44.5,1.0,1.0,1.0,1.0,0.0,1500.0,1500.0,1000.0,1500.0,10.0
16:29:20,AUTO,-0.02353204693645239,-0.3212239742279053,0.756913959980011,0.4322308823466301,0.006422488717362285,-0.04333645664155483,-35.3631955,149.16529,95124.0,2.2766493558883667,-18.420905113220215,31.0,31.0,108.0,0.5817968845367432,2.4250000715255737,2.4325915575027466,33.5,-0.939115434885025,42.5,1.0,1.0,1.0,1.0,0.0,1500.0,1500.0,1000.0,1500.0,10.0
16:29:21,AUTO,-0.0240849070250988,-0.32439233362674713,0.7336121797561646,-0.018165577203035355,-0.0014778358163312078,-0.015453696745680645,-35.363176675,149.16530392500002,94182.25,2.1708644032478333,-18.550095081329346,31.0,31.0,105.5,0.5954028218984604,2.4597501158714294,2.4618903398513794,34.0,-0.915349006652832,41.5,1.0,1.0,1.0,1.0,0.0,1500.0,1500.0,1000.0,1500.0,10.0
16:29:22,AUTO,-0.02124965889379382,-0.3255570977926254,0.7159377336502075,0.10675102472305298,0.002052800264209509,-0.022297569550573826,-35.3631576,149.165318,93259.0,2.066776990890503,-18.588004112243652,31.0,31.0,103.0,0.5847167670726776,2.48550021648407,2.4825295209884644,34.0,-0.9180817306041718,40.5,1.0,1.0,1.0,1.0,0.0,1500.0,1500.0,1000.0,1500.0,10.0
16:29:23,AUTO,-0.013231789227575064,-0.3237079158425331,0.7006033658981323,-0.017009422183036804,-0.0008605646435171366,-0.004737083101645112,-35.363138449999994,149.165332175,92339.5,2.099462568759918,-18.45171022415161,31.0,31.0,100.5,0.5589892417192459,2.4885001182556152,2.4826782941818237,34.0,-0.9304908066987991,39.75,1.0,1.0,1.0,1.0,0.0,1500.0,1500.0,1000.0,1500.0,10.0
16:29:24,AUTO,-0.015741515439003706,-0.3244900405406952,0.687050461769104,-0.44897694885730743,-0.0029464683029800653,0.00370220560580492,-35.3631194,149.16534635,91404.5,2.178021192550659,-18.466136932373047,31.0,31.0,98.0,0.5314160287380219,2.47350013256073,2.479428768157959,34.0,-0.9576791524887085,39.0,1.0,1.0,1.0,1.0,0.0,1500.0,1500.0,1000.0,1500.0,10.0
16:29:25,AUTO,-0.0039042244316078722,-0.32701631635427475,0.6759734749794006,0.0837397500872612,0.0018818478856701404,-0.004579333821311593,-35.36310045,149.1653607,90451.25,2.131767451763153,-18.587273597717285,31.0,31.0,95.5,0.5082739144563675,2.4652501344680786,2.4840583205223083,33.0,-0.9762501567602158,38.0,1.0,1.0,1.0,1.0,0.0,1500.0,1500.0,1000.0,1500.0,10.0
16:29:26,AUTO,-0.006606897688470781,-0.32975542545318604,0.6664188504219055,-0.30703993141651154,-0.0017894133925437927,0.004311385564506054,-35.36308175,149.16537535,89476.5,1.961318016052246,-18.74968910217285,31.0,31.0,93.0,0.4969433546066284,2.469500184059143,2.499599575996399,33.0,-0.9902610778808594,37.5,1.0,1.0,1.0,1.0,0.0,1500.0,1500.0,1000.0,1500.0,10.0
16:29:27,AUTO,-0.010646624037690344,-0.33151009678840637,0.6589776426553726,0.05342014878988266,-0.004823346273042262,-0.01025258912704885,-35.36306305,149.165390225,88487.5,1.4968422651290894,-18.927217483520508,31.0,31.0,90.75,0.4936523362994194,2.4840001463890076,2.513301432132721,33.25,-1.00238598883152,37.0,1.0,1.0,1.0,1.0,0.0,1500.0,1500.0,1000.0,1500.0,10.0
16:29:28,AUTO,-0.004751248983666301,-0.3345806747674942,0.6525638401508331,0.4218250699341297,-0.005801960360258818,-0.0033450396731495857,-35.363044099999996,149.16540500000002,87485.5,1.2033567428588867,-19.141953468322754,31.0,31.0,88.0,0.49376463890075684,2.5000001192092896,2.5236531496047974,33.0,-1.0027161836624146,37.0,1.0,1.0,1.0,1.0,0.0,1500.0,1500.0,1000.0,1500.0,10.0
16:29:29,AUTO,-0.01581763627473265,-0.3378177285194397,0.6469905525445938,0.006842568516731262,0.00392877368722111,-0.007013952359557152,-35.363024949999996,149.1654197,86474.0,0.990213617682457,-19.33772325515747,31.0,31.0,85.75,0.49629637598991394,2.523250102996826,2.5349957942962646,33.25,-1.0030147731304169,36.75,1.0,1.0,1.0,1.0,0.0,1500.0,1500.0,1000.0,1500.0,10.0
16:29:30,AUTO,-0.010516555979847908,-0.3378407806158066,0.6404651701450348,0.10923708230257034,0.0038078564684838057,-0.012429310707375407,-35.36300555,149.1654341,85459.0,0.983132541179657,-19.343131065368652,31.0,31.0,83.0,0.5028222501277924,2.53000009059906,2.537719488143921,33.5,-1.001874178647995,36.0,1.0,1.0,1.0,1.0,0.0,1500.0,1500.0,1000.0,1500.0,10.0
16:29:31,AUTO,-0.009487135313975159,-0.33962582051754,0.6344900280237198,0.0206870436668396,-0.0023475841735489666,-0.0020447233109734952,-35.36298595,149.16544814999997,84442.75,1.0414441376924515,-19.455432415008545,31.0,31.0,80.5,0.5094311386346817,2.539750099182129,2.5373971462249756,33.75,-0.9969766288995743,36.0,1.0,1.0,1.0,1.0,0.0,1500.0,1500.0,1000.0,1500.0,10.0
16:29:32,AUTO,-0.012619296088814735,-0.34055349230766296,0.6289933919906616,-0.350248035043478,0.004648054717108607,-0.00040400028228759766,-35.36296625,149.16546215,83425.5,1.1393181085586548,-19.467984199523926,31.0,31.0,78.0,0.5136523246765137,2.546500086784363,2.536583662033081,34.0,-0.9862731993198395,35.5,1.0,1.0,1.0,1.0,0.0,1500.0,1500.0,1000.0,1500.0,10.0
16:29:33,AUTO,0.0018590503023006022,-0.34067612141370773,0.6219258308410645,0.20038574934005737,0.0009206155373249203,-0.01694533950649202,-35.3629464,149.1654761,82409.75,1.4981019794940948,-19.46369743347168,31.0,31.0,75.25,0.5145336836576462,2.5482500791549683,2.532514214515686,33.75,-0.9860071688890457,35.0,1.0,1.0,1.0,1.0,0.0,1500.0,1500.0,1000.0,1500.0,10.0
16:29:34,AUTO,0.012935023289173841,-0.34085536003112793,0.6160141825675964,0.057876646518707275,0.00034615956246852875,-0.001089043915271759,-35.3629266,149.1654901,81393.0,1.9097577333450317,-19.44387912750244,31.0,31.0,73.0,0.5149096548557281,2.5495001077651978,2.5338629484176636,34.0,-0.9802081286907196,35.0,1.0,1.0,1.0,1.0,0.0,1500.0,1500.0,1000.0,1500.0,10.0
16:29:35,AUTO,0.015531042125076056,-0.3393751159310341,0.6107024550437927,0.046615324914455414,-0.0032900465885177255,-0.008452865004073828,-35.3629068,149.1655044,80374.25,2.0850247740745544,-19.342047214508057,31.0,31.0,70.25,0.5129675418138504,2.5492501258850098,2.5341272354125977,33.25,-0.979603499174118,34.5,1.0,1.0,1.0,1.0,0.0,1500.0,1500.0,1000.0,1500.0,10.0
16:29:36,AUTO,0.02442764211446047,-0.34077101945877075,0.6059262454509735,0.2805228680372238,0.0011607224587351084,-0.0037825843319296837,-35.362887150000006,149.1655187,79360.5,2.2323654890060425,-19.409008026123047,31.0,31.0,68.0,0.5088329911231995,2.5455000400543213,2.5250678062438965,34.0,-0.9909080564975739,34.0,1.0,1.0,1.0,1.0,0.0,1500.0,1500.0,1000.0,1500.0,10.0
16:29:37,AUTO,0.018563112476840615,-0.3382904455065727,0.6021328270435333,-0.04502838850021362,-0.00022692303173244,-0.0016028311802074313,-35.362867475,149.165533125,78341.0,2.271770477294922,-19.286449432373047,31.0,31.0,65.25,0.5090502798557281,2.541750133037567,2.5245760083198547,33.5,-0.9940844029188156,34.0,1.0,1.0,1.0,1.0,0.0,1500.0,1500.0,1000.0,1500.0,10.0
16:29:38,AUTO,0.030834966339170933,-0.33934423327445984,0.5969153642654419,0.35570637695491314,0.0007104686228558421,-0.01714827452087775,-35.3628478,149.16554724999997,77323.0,2.671395778656006,-19.324626922607422,31.0,31.0,63.0,0.5074731111526489,2.532500147819519,2.524993896484375,34.0,-0.9946907758712769,34.0,1.0,1.0,1.0,1.0,0.0,1500.0,1500.0,1000.0,1500.0,10.0
16:29:39,AUTO,0.0353739270940423,-0.3384016901254654,0.5923548340797424,0.042239367961883545,-0.0006180460040923208,-0.00777615699917078,-35.36282825,149.165561575,76305.75,3.016363739967346,-19.257998943328857,31.0,31.0,60.0,0.5078356862068176,2.535750091075897,2.535841941833496,33.75,-0.9891957342624664,33.25,1.0,1.0,1.0,1.0,0.0,1500.0,1500.0,1000.0,1500.0,10.0
16:29:40,AUTO,0.03803740814328194,-0.33891382813453674,0.588220477104187,0.13006913661956787,-0.0008048872696235776,-0.018309333827346563,-35.36280885,149.1655763,75287.0,3.1662979125976562,-19.268919944763184,31.0,31.0,58.0,0.506701648235321,2.536500096321106,2.5392173528671265,33.5,-0.9886957406997681,33.0,1.0,1.0,1.0,1.0,0.0,1500.0,1500.0,1000.0,1500.0,10.0
16:29:41,AUTO,0.04151428444311023,-0.3381171450018883,0.585394486784935,0.001764729619026184,0.0041122204274870455,-0.0020320159383118153,-35.362789675,149.165591425,74267.0,3.1247332096099854,-19.22947597503662,31.0,31.0,55.0,0.5076037496328354,2.542250096797943,2.5421316027641296,33.0,-0.9912285655736923,33.0,1.0,1.0,1.0,1.0,0.0,1500.0,1500.0,1000.0,1500.0,10.0
16:29:42,AUTO,0.029690014198422432,-0.3355681449174881,0.5836862623691559,-0.24290570616722107,0.005136413616128266,-0.006701609585434198,-35.36277055,149.1656069,73247.0,2.735887885093689,-19.127182960510254,31.0,31.0,53.0,0.5084521472454071,2.543000102043152,2.5471596717834473,33.5,-0.9907211065292358,33.0,1.0,1.0,1.0,1.0,0.0,1500.0,1500.0,1000.0,1500.0,10.0
16:29:43,AUTO,0.02862518886104226,-0.3355862572789192,0.5820294916629791,0.06057558208703995,-0.004112229798920453,-0.006336474092677236,-35.362751475,149.165622275,72226.5,2.40149462223053,-19.168070316314697,31.0,31.0,50.0,0.5054748505353928,2.5315001010894775,2.543919086456299,33.75,-0.9911978840827942,33.0,1.0,1.0,1.0,1.0,0.0,1500.0,1500.0,1000.0,1500.0,10.0
16:29:44,AUTO,0.0281547037884593,-0.33793535828590393,0.579779863357544,-0.05022808909416199,-0.0021925256587564945,0.0016378099680878222,-35.36273235,149.16563730000001,71212.5,2.30117404460907,-19.30158805847168,31.0,31.0,47.5,0.5020873844623566,2.5365002155303955,2.542017698287964,34.0,-1.0035685896873474,33.0,1.0,1.0,1.0,1.0,0.0,1500.0,1500.0,1000.0,1500.0,10.0
16:29:45,AUTO,0.024792617186903954,-0.33784905076026917,0.5780857652425766,-0.0471467562019825,0.0036880256375297904,-0.010071609634906054,-35.362713075,149.165652175,70192.25,2.1658838987350464,-19.307230949401855,31.0,31.0,45.0,0.5036035031080246,2.5442501306533813,2.5492405891418457,33.75,-0.9948232471942902,33.0,1.0,1.0,1.0,1.0,0.0,1500.0,1500.0,1000.0,1500.0,10.0
16:29:46,AUTO,0.0329770864918828,-0.33866851031780243,0.5756296515464783,0.28477945923805237,0.006261444708798081,0.0036262646317481995,-35.3626937,149.1656672,69176.5,2.1277449131011963,-19.333576202392578,31.0,31.0,42.0,0.49833983182907104,2.5495001077651978,2.5466853380203247,34.0,-0.9972424209117889,32.5,1.0,1.0,1.0,1.0,0.0,1500.0,1500.0,1000.0,1500.0,10.0
16:29:47,AUTO,0.02431981498375535,-0.33853162080049515,0.5744880586862564,-0.1168949194252491,-0.0003356372471898794,0.005801108229206875,-35.3626744,149.16568224999997,68160.25,1.9018774032592773,-19.343230724334717,31.0,31.0,40.0,0.4964050278067589,2.555250108242035,2.5464434027671814,33.75,-1.003726750612259,32.0,1.0,1.0,1.0,1.0,0.0,1500.0,1500.0,1000.0,1500.0,10.0
16:29:48,AUTO,0.019353545270860195,-0.3384345471858978,0.5735036134719849,0.3137037232518196,0.00620573409833014,-0.018993787467479706,-35.3626551,149.16569744999998,67138.0,1.4631251692771912,-19.351533889770508,31.0,31.0,37.0,0.49586912989616394,2.5500001907348633,2.543897032737732,34.0,-1.002750039100647,32.0,1.0,1.0,1.0,1.0,0.0,1500.0,1500.0,1000.0,1500.0,10.0
16:29:49,AUTO,0.016665506758727133,-0.3378514125943184,0.57170669734478,0.017279647290706635,0.0024949046201072633,0.002840664004907012,-35.362635624999996,149.165712225,66114.5,1.3472990095615387,-19.356452465057373,31.0,31.0,34.75,0.4977697655558586,2.5435001254081726,2.538273334503174,33.5,-1.0028114467859268,32.0,1.0,1.0,1.0,1.0,0.0,1500.0,1500.0,1000.0,1500.0,10.0
16:29:50,AUTO,0.011339676566421986,-0.33979056775569916,0.5708212554454803,-0.180914506316185,-0.00421126140281558,-0.002254711464047432,-35.3626159,149.16572655,65090.0,1.3159643411636353,-19.460268020629883,31.0,31.0,32.0,0.49980710446834564,2.539000153541565,2.5346648693084717,34.0,-0.9986440241336823,32.0,1.0,1.0,1.0,1.0,0.0,1500.0,1500.0,1000.0,1500.0,10.0
16:29:51,AUTO,0.020653489511460066,-0.34165680408477783,0.5681205540895462,0.15137812122702599,0.0036502603616099805,-0.0035988083109259605,-35.362596225,149.165740425,64072.75,1.513793408870697,-19.5501651763916,31.0,31.0,29.75,0.4991381764411926,2.54500013589859,2.535882890224457,33.5,-1.0014156103134155,32.0,1.0,1.0,1.0,1.0,0.0,1500.0,1500.0,1000.0,1500.0,10.0
16:29:52,AUTO,0.02336740307509899,-0.3414350003004074,0.5657131671905518,-0.31639638915657997,0.004272793652489781,0.016765092266723514,-35.3625763,149.1657542,63046.5,1.9630991220474243,-19.5383358001709,31.0,31.0,27.0,0.505078136920929,2.5550001859664917,2.5428309440612793,34.0,-1.000385820865631,32.0,1.0,1.0,1.0,1.0,0.0,1500.0,1500.0,1000.0,1500.0,10.0
16:29:53,AUTO,0.03659834340214729,-0.34090646356344223,0.5629859566688538,0.1394502455368638,0.001140647567808628,-0.0066720309550873935,-35.362556425,149.16576817499998,62023.5,2.409286320209503,-19.48210859298706,31.0,31.0,24.75,0.5078576654195786,2.558000147342682,2.545250952243805,33.75,-0.9934285879135132,32.0,1.0,1.0,1.0,1.0,0.0,1500.0,1500.0,1000.0,1500.0,10.0
16:29:54,AUTO,0.0448830034583807,-0.33784250915050507,0.5611869692802429,0.2785523906350136,0.00473506172420457,-0.005277510732412338,-35.3625367,149.16578265,61003.0,2.6013495922088623,-19.290900230407715,31.0,31.0,22.0,0.5080468654632568,2.558000087738037,2.548546075820923,34.0,-0.9918414652347565,32.0,1.0,1.0,1.0,1.0,0.0,1500.0,1500.0,1000.0,1500.0,10.0
16:29:55,AUTO,0.03972612600773573,-0.33691857010126114,0.5599095076322556,-0.05973464250564575,-0.0016232904163189232,-0.001333339256234467,-35.36251705,149.16579744999999,59982.0,2.6061132550239563,-19.25900363922119,31.0,31.0,19.25,0.5061242580413818,2.5497501492500305,2.536177337169647,34.0,-0.9922295361757278,32.0,1.0,1.0,1.0,1.0,0.0,1500.0,1500.0,1000.0,1500.0,10.0
16:29:56,AUTO,0.04360259883105755,-0.3369327187538147,0.5589379966259003,0.3939904719591141,-0.00022774026729166508,-0.012846171855926514,-35.3624975,149.1658122,58968.0,2.635253071784973,-19.26778507232666,31.0,31.0,17.0,0.4989086836576462,2.5415000915527344,2.5279496908187866,33.5,-0.9927063882350922,31.5,1.0,1.0,1.0,1.0,0.0,1500.0,1500.0,1000.0,1500.0,10.0
16:29:57,AUTO,0.04115820350125432,-0.3370048701763153,0.5582282394170761,0.06113950698636472,-0.0008690214017406106,-0.007179873762652278,-35.36247805000001,149.1658268,57947.0,2.6750829219818115,-19.25982666015625,31.0,31.5,14.25,0.4997582882642746,2.5435001254081726,2.528674066066742,34.0,-0.9990027397871017,31.5,1.0,1.0,1.0,1.0,0.0,1500.0,1500.0,1000.0,1500.0,10.0
16:29:58,AUTO,0.044187938794493675,-0.3363621383905411,0.5559339821338654,0.14614787697792053,-0.011739508714526892,-0.012402596534229815,-35.36245855,149.1658415,56925.5,2.891129493713379,-19.2814884185791,31.0,32.0,13.0,0.49785155057907104,2.5450000762939453,2.522844076156616,34.0,-1.0101813077926636,31.0,1.0,1.0,1.0,1.0,0.0,1500.0,1500.0,1000.0,1500.0,10.0
16:29:59,AUTO,0.04758392460644245,-0.3340374082326889,0.5551059991121292,0.02532947063446045,0.004899149993434548,-0.004979190998710692,-35.3624392,149.16585652499998,55907.5,3.003348541259766,-19.101033401489257,31.0,31.8,9.6,0.49905565977096555,2.5480000972747803,2.533042001724243,33.2,-0.9958717703819275,31.0,1.0,1.0,1.0,1.0,0.0,1500.0,1500.0,1000.0,1500.0,10.0
16:30:00,AUTO,0.04493100754916668,-0.3339390158653259,0.5551103353500366,0.3956368416547775,0.0015053357928991318,-0.016141812317073345,-35.36242015,149.1658719,54889.0,2.6345858573913574,-19.081144332885742,31.0,31.0,7.0,0.49711425602436066,2.539000153541565,2.53106153011322,33.5,-0.9981651306152344,31.0,1.0,1.0,1.0,1.0,0.0,1500.0,1500.0,1000.0,1500.0,10.0
16:30:01,AUTO,0.03395555028691888,-0.293607734143734,0.5566465109586716,-0.10161757841706276,0.10118748899549246,0.0042390169110149145,-35.36240125,149.1658872,53883.0,2.1449846625328064,-16.76330542564392,31.0,29.75,4.25,0.4915722608566284,2.4942501187324524,2.4529516100883484,33.25,-0.9532003104686737,31.25,1.0,1.0,1.0,1.0,0.0,1500.0,1500.0,1000.0,1500.0,10.0
16:30:02,AUTO,0.026259281672537327,-0.13970095664262772,0.5633409917354584,-0.1239640899002552,0.1826981008052826,-0.005735223647207022,-35.362384649999996,149.16590044999998,53012.5,1.594029426574707,-8.216232061386108,31.5,27.5,2.0,0.4436035007238388,2.0165001153945923,1.8444020748138428,32.5,-0.7443646788597107,32.0,1.0,1.0,1.0,1.0,0.0,1500.0,1500.0,1000.0,1500.0,10.0
16:30:03,AUTO,0.02196027128957212,0.07597018266096711,0.606415793299675,-0.061631545424461365,0.2385641299188137,0.15400924207642674,-35.362374575,149.165908825,52403.25,1.253283977508545,3.973962724208832,34.5,20.5,0.75,0.3450036495923996,0.924250066280365,0.6443308647722006,34.0,-0.41976556926965714,34.0,1.0,1.0,1.0,1.0,0.0,1500.0,1500.0,1000.0,1500.0,10.0
16:30:04,AUTO,0.11385639570653439,0.23788926750421524,0.9635404944419861,-0.05369037389755249,0.1521918922662735,0.5697105526924133,-35.36237615,149.16590865,52175.0,6.441097378730774,13.28243350982666,56.0,208.0,176.0,0.23784178495407104,0.6725000254809856,0.9466862231492996,41.5,-0.0930501539260149,55.0,1.0,1.0,1.0,1.0,0.0,1500.0,1500.0,1000.0,1500.0,10.0
16:30:05,AUTO,0.31598854437470436,0.18386346846818924,1.6251825392246246,0.04740152042359114,0.032413947628811,0.7057909071445465,-35.362388599999996,149.1659003,52210.75,18.07088327407837,10.536980628967285,92.5,208.0,174.5,0.1736425720155239,2.084500104188919,2.3086465895175934,53.5,0.13838699273765087,92.75,1.0,1.0,1.0,1.0,0.0,1500.0,1500.0,1000.0,1500.0,10.0
16:30:06,AUTO,0.4007824510335922,-0.007663249969482422,2.066266179084778,0.0641642440459691,0.003945533186197281,0.34655429422855377,-35.362410249999996,149.1658858,52376.5,26.110589027404785,-2.468500256538391,131.5,208.5,172.0,0.1892675682902336,2.9470001459121704,3.0812491178512573,75.0,0.11309647932648659,118.0,1.0,1.0,1.0,1.0,0.0,1500.0,1500.0,1000.0,1500.0,10.0
16:30:07,AUTO,0.4437049701809883,-0.08146975003182888,2.355392813682556,0.06619023764505982,0.10335876233875751,0.2801729440689087,-35.362436325000004,149.165870225,52419.5,24.773481369018555,-12.73224949836731,160.75,209.0,168.5,0.43709226697683334,3.333000123500824,3.467837691307068,96.5,-0.11694192001596093,134.5,1.0,1.0,1.0,1.0,0.0,1500.0,1500.0,1000.0,1500.0,10.0
16:30:08,AUTO,0.3842672109603882,-0.1736370176076889,2.720709800720215,-0.06396960327401757,0.10197585262358189,0.5073944330215454,-35.36246355,149.1658507,52253.5,8.420223832130432,-13.008863925933838,2.5,208.5,165.0,0.9607055485248566,3.5580002069473267,3.6512720584869385,100.0,-0.22550997138023376,155.5,1.0,1.0,1.0,1.0,0.0,1500.0,1500.0,1000.0,1500.0,10.0
16:30:09,AUTO,0.1534303966909647,-0.22624564915895462,-1.4276767373085022,-0.09987780079245567,0.14484302699565887,0.3871453106403351,-35.36248925,149.165829275,52218.0,-3.6708585619926453,-9.45534348487854,-152.0,208.0,161.5,1.3854369819164276,3.2837501764297485,3.2469258308410645,100.0,0.26230199821293354,187.5,1.0,1.0,1.0,1.0,0.0,1500.0,1500.0,1000.0,1500.0,10.0
16:30:10,AUTO,0.04992069024592638,-0.14220061898231506,-2.7959742546081543,-0.04512703884392977,0.07201975211501122,0.10879452526569366,-35.3625087,149.16581275,52844.0,-5.416588544845581,-8.415080547332764,-150.0,208.0,159.0,1.1426122784614563,2.3295000791549683,2.239710569381714,93.0,0.8287643194198608,199.5,1.0,1.0,1.0,1.0,0.0,1500.0,1500.0,1000.0,1500.0,10.0
16:30:11,AUTO,0.015723617980256677,-0.09625417739152908,-2.706650197505951,-0.02585418988019228,0.019341506995260715,0.08538231998682022,-35.362522075,149.1658025,53822.0,-4.861463308334351,-8.802888631820679,-150.0,208.0,157.25,0.5063952654600143,1.4545000791549683,1.4279066920280457,74.5,1.0374307036399841,204.5,1.0,1.0,1.0,1.0,0.0,1500.0,1500.0,1000.0,1500.0,10.0
16:30:12,AUTO,-0.08458624221384525,-0.1868441179394722,-2.5234955549240112,-0.06418698839843273,-0.2572600021958351,0.16224388033151627,-35.362532,149.16579735,54876.5,0.8050196170806885,-17.42948579788208,-151.0,208.0,156.0,-0.26574462559074163,1.2270000576972961,1.3404229283332825,60.0,0.9162455499172211,215.0,1.0,1.0,1.0,1.0,0.0,1500.0,1500.0,1000.0,1500.0,10.0
16:30:13,AUTO,-0.11084037460386753,-0.3993644192814827,-2.399889051914215,0.0630580335855484,-0.09264919068664312,-0.025707664666697383,-35.362547049999996,149.165793125,55602.75,8.287799000740051,-27.877734661102295,-152.75,208.5,154.25,-0.7527221441268921,2.152500092983246,2.4263518154621124,60.25,0.37080536782741547,221.75,1.0,1.0,1.0,1.0,0.0,1500.0,1500.0,1000.0,1500.0,10.0
16:30:14,AUTO,-0.03503165394067764,-0.3866436034440994,-2.452040433883667,0.0409651817753911,0.026374290697276592,-0.05120724439620972,-35.3625706,149.16578245,55851.0,8.899420261383057,-28.751262664794922,-153.0,209.0,151.5,-0.8040258586406708,3.026000142097473,3.0796395540237427,64.0,0.1505841463804245,219.0,1.0,1.0,1.0,1.0,0.0,1500.0,1500.0,1000.0,1500.0,10.0
16:30:15,AUTO,0.007666605757549405,-0.3803727254271507,-2.5008118748664856,0.015325209475122392,0.0017881818348541856,-0.030088695930317044,-35.36259585,149.16576755,56012.5,8.086898684501648,-28.984652042388916,-153.0,209.0,148.5,-0.7966845631599426,3.205250084400177,3.1730048656463623,66.75,0.1364450938999653,216.0,1.0,1.0,1.0,1.0,0.0,1500.0,1500.0,1000.0,1500.0,10.0
16:30:16,AUTO,0.015277340076863766,-0.38076941668987274,-2.5225822925567627,-0.0036250799894332886,-0.020721910055726767,-0.010897761443629861,-35.3626211,149.1657502,56157.0,6.6534953117370605,-29.314762115478516,-152.0,209.0,145.0,-0.7904199063777924,3.2365002632141113,3.188887357711792,70.0,0.12833743914961815,215.0,1.0,1.0,1.0,1.0,0.0,1500.0,1500.0,1000.0,1500.0,10.0
16:30:17,AUTO,0.014799381839111447,-0.421928808093071,-2.532977879047394,-0.0006406860775314271,-0.06538445875048637,-0.008444743463769555,-35.362646275,149.165732025,56246.5,5.496016144752502,-29.53641939163208,-152.0,209.0,142.0,-0.7217565774917603,3.3102501034736633,3.2835620045661926,76.5,0.004695276729762554,214.25,1.0,1.0,1.0,1.0,0.0,1500.0,1500.0,1000.0,1500.0,10.0
16:30:18,AUTO,0.014967795461416245,-0.39913293719291687,-2.5450457334518433,0.0016826450591906905,0.07843973487615585,-0.019816630985587835,-35.3626731,149.16571265,56161.5,4.852928638458252,-25.328776359558105,-151.5,209.0,138.5,-0.4414062350988388,3.5150002241134644,3.452884316444397,84.5,-0.04741856828331947,213.5,1.0,1.0,1.0,1.0,0.0,1500.0,1500.0,1000.0,1500.0,10.0
16:30:19,AUTO,0.032012073788791895,-0.309651181101799,-2.5747777223587036,0.004486934398300946,-0.018202981678768992,-0.030776225263252854,-35.3626993,149.16569395,56262.75,4.278640031814575,-20.17886257171631,-151.0,209.0,135.0,-0.2983166426420212,3.2615001797676086,3.0693190693855286,76.5,0.32097359001636505,212.0,1.0,1.0,1.0,1.0,0.0,1500.0,1500.0,1000.0,1500.0,10.0
