time_stamp,MODE,roll,pitch,yaw,rollspeed,pitchspeed,yawspeed,lat,lon,relative_alt,nav_roll,nav_pitch,nav_bearing,target_bearing,wp_dist,alt_error,airspeed,groundspeed,throttle,climb,heading,GPS_status,Gyro_status,Accel_status,Baro_status,PreArm_error,chan1_raw,chan2_raw,chan3_raw,chan4_raw,satellites_visible
17:15:08,STABILIZE,-0.0010227715829387307,0.0009118632297031581,0.021491410210728645,5.483825225383043e-05,0.00043717934750020504,0.002004331909120083,-35.3632621,149.1652375,0.0,-0.0003750970936380327,0.00015500601148232818,1.0,0.0,0.0,0.007229357026517391,0.0,0.01604050025343895,0.0,-0.01568836346268654,1.0,1.0,1.0,1.0,1.0,0.0,1500.0,1500.0,1000.0,1500.0,10.0
17:15:09,STABILIZE,-0.0008211708045564592,0.0009858050616458058,0.02094755694270134,0.00018977175932377577,0.00035524903796613216,0.001942223054356873,-35.3632621,149.1652375,0.0,-0.00037509755929932,0.00015500621520914137,1.0,0.0,0.0,0.01412191241979599,0.0,0.014972566626966,0.0,-0.027680435217916965,1.0,1.0,1.0,1.0,1.0,0.0,1500.0,1500.0,1000.0,1500.0,10.0
17:15:11,STABILIZE,-0.000844445254188031,0.0012286772835068405,0.020022847689688206,0.00010538013884797692,0.0003155238227918744,0.0017089371103793383,-35.3632621,149.1652375,0.0,-0.00037509918911382556,0.00015500669906032272,1.0,0.0,0.0,0.030742906965315342,0.0,0.020063108764588833,0.0,-0.026637788396328688,1.0,1.0,1.0,1.0,1.0,0.0,1500.0,1500.0,1000.0,1500.0,10.0
17:15:12,STABILIZE,-0.0006775828660465777,0.0012795813381671906,0.019703466445207596,0.00014419585932046175,0.0003520892933011055,0.001618425128981471,-35.3632621,149.1652375,0.0,-0.00037509965477511287,0.0001550067972857505,1.0,0.0,0.0,0.03605310246348381,0.0,0.016326330602169037,0.0,-0.043399881571531296,1.0,1.0,1.0,1.0,1.0,0.0,1500.0,1500.0,1000.0,1500.0,10.0
17:15:15,STABILIZE,-0.0008512042695656419,0.001121219325189789,0.018479348470767338,0.00019559423283984265,0.00023555837105959654,0.0016254479996860027,-35.3632622,149.1652375,0.0,-0.00037510175025090575,0.000155007466673851,1.0,0.0,0.0,0.01890711858868599,0.0,0.02035542204976082,0.0,-0.010954530909657478,1.0,1.0,1.0,1.0,1.0,0.0,1500.0,1500.0,1000.0,1500.0,10.0
17:15:18,STABILIZE,-0.0006476533017121255,0.0010937672341242433,0.017659172415733337,0.000141264870762825,0.0002711521228775382,0.0015461680013686419,-35.3632622,149.1652375,0.0,-0.0003751030017156154,0.00015500788867939264,1.0,0.0,0.0,0.017739007249474525,0.0,0.018746506422758102,0.0,-0.012504816986620426,1.0,1.0,1.0,1.0,1.0,0.0,1500.0,1500.0,1000.0,1500.0,10.0
17:15:21,STABILIZE,-0.0008041721303015947,0.001063642674125731,0.0166544858366251,0.00019969193575282892,0.00024164142087101936,0.0014771799712131421,-35.3632622,149.1652375,0.0,-0.000375104524816076,0.00015500825247727334,0.0,0.0,0.0,0.004232195943283538,0.0,0.028679837783177693,0.0,0.018195762454221647,0.0,1.0,1.0,1.0,1.0,0.0,1500.0,1500.0,1000.0,1500.0,10.0
17:15:23,AUTO,-0.0008769283595029265,0.0008608215139247477,0.01614136341959238,4.151224857196212e-05,0.00013868004316464067,0.0014606948825530708,-35.3632622,149.1652375,3.0,-0.00037510482555565733,0.00015500835919131836,0.0,93.66666666666667,0.0,-0.004458016405502955,0.0,0.023180348798632622,0.0,0.020640230427185696,0.0,1.0,1.0,1.0,1.0,0.0,1500.0,1500.0,1000.0,1500.0,10.0
17:15:24,AUTO,-0.0009168958058580756,0.0008406876586377621,0.01608515903353691,0.0002053206553682685,0.00029226415790617466,0.0013552075251936913,-35.3632622,149.1652375,7.0,-0.0003751048643607646,0.00015500844165217131,0.0,141.0,0.0,0.0,0.0,0.017809845507144928,0.0,0.019176898524165154,0.0,1.0,1.0,1.0,1.0,0.0,1500.0,1500.0,1000.0,1500.0,10.0
17:15:25,AUTO,-0.0005477002899472913,0.0010809108304480712,0.015710408488909405,0.00010834700272728999,0.00028123198232303065,0.0013528115038449566,-35.3632622,149.1652375,0.0,-0.0003751054755412042,0.00015500845620408654,0.0,142.33333333333334,0.0,0.0,0.0,0.0035243988192329803,0.0,-0.0014189577971895535,0.0,1.0,1.0,1.0,1.0,0.0,1500.0,1500.0,1000.0,1500.0,10.0
17:15:26,AUTO,-0.000336847580911126,0.001227547531016171,0.015525045804679394,0.00012718694051727653,0.0002957541146315634,0.0013616441283375025,-35.3632622,149.1652375,0.0,0.0026552209310466424,0.012473043563659303,0.0,141.0,0.0,7.898330659372732e-05,0.0,0.004525471536908299,0.0,-0.007429951961967163,0.0,1.0,1.0,1.0,1.0,0.0,1500.0,1500.0,1000.0,1500.0,10.0
17:15:27,AUTO,0.17236614599823952,0.1868372046155855,0.039283063262701035,0.31495868414640427,0.34743356477702036,0.03819400316569954,-35.363258825,149.16523425,126.75,12.552397727966309,14.733806133270264,2.25,142.5,0.0,0.19839921966195107,0.8640000410377979,1.0019037127494812,33.75,0.4268289259634912,1.75,1.0,1.0,1.0,1.0,0.0,1500.0,1500.0,1000.0,1500.0,10.0
17:15:28,AUTO,0.3456305265426636,0.36963754892349243,0.061017513275146484,0.08120795339345932,-0.008348959498107433,0.02650235779583454,-35.3632545,149.1652295,563.0,17.42991828918457,17.885068893432617,3.0,139.0,1.0,0.16779635846614838,0.999000072479248,0.6791883111000061,45.0,1.0324409008026123,3.0,1.0,1.0,1.0,1.0,0.0,1500.0,1500.0,1000.0,1500.0,10.0
17:15:29,AUTO,0.3717082589864731,0.35757390409708023,0.06634903978556395,0.034777748165652156,0.01473229331895709,0.003378406458068639,-35.36325305,149.165226875,2514.25,18.470384120941162,18.34465503692627,2.5,136.25,1.0,-0.1966560333967209,0.122750005684793,0.1532642925158143,67.0,1.6140722632408142,3.25,1.0,1.0,1.0,1.0,0.0,1500.0,1500.0,1000.0,1500.0,10.0
17:15:30,AUTO,0.40654733777046204,0.37224918603897095,0.05647115036845207,0.05099356919527054,0.028560716658830643,0.0015101069584488869,-35.3632539,149.1652277,3561.0,17.72812271118164,18.506195068359375,1.0,136.0,1.0,-0.2722790539264679,0.2590000033378601,0.32514551281929016,85.0,1.616375207901001,3.0,1.0,1.0,1.0,1.0,0.0,1500.0,1500.0,1000.0,1500.0,10.0
17:15:31,AUTO,0.41603346168994904,0.29987116903066635,0.11230407282710075,-0.09635965432971716,-0.09199681505560875,0.13409498892724514,-35.36325785,149.16523335,5701.25,11.389209270477295,15.329328536987305,0.5,142.5,0.0,-0.1379528772085905,0.5575000271201134,0.5383313819766045,92.25,1.4929729104042053,6.0,1.0,1.0,1.0,1.0,0.0,1500.0,1500.0,1000.0,1500.0,10.0
17:15:32,AUTO,0.34855130314826965,0.21581552922725677,0.17656783759593964,-0.1778145283460617,-0.08180465549230576,0.14985494315624237,-35.3632591,149.1652359,6680.0,9.77031421661377,12.94205093383789,0.0,155.0,0.0,-0.0769067332148552,0.39900001883506775,0.24081498384475708,87.0,1.613882064819336,10.0,1.0,1.0,1.0,1.0,0.0,1500.0,1500.0,1000.0,1500.0,10.0
17:15:33,AUTO,0.34329450130462646,0.18920410672823587,0.29035961627960205,0.07236777742703755,0.05229267105460167,0.03637680100897948,-35.36325753333333,149.16523269999996,9159.333333333334,16.042912165323894,13.246181805928549,0.3333333333333333,140.0,0.0,-0.3304101526737213,0.5483333667119344,0.5382206042607626,70.33333333333333,1.9559860626856487,16.0,1.0,1.0,1.0,1.0,0.0,1500.0,1500.0,1000.0,1500.0,10.0
17:15:34,AUTO,0.39536286890506744,0.214457705616951,0.3197872042655945,0.07699423283338547,0.05013008043169975,0.01788652315735817,-35.363256750000005,149.16522915000002,10399.5,21.085546493530273,15.355987548828125,1.0,129.0,0.5,-0.522165834903717,0.5470000207424164,0.4696766436100006,69.5,1.9441929459571838,18.0,1.0,1.0,1.0,1.0,0.0,1500.0,1500.0,1000.0,1500.0,10.0
17:15:35,AUTO,0.47931259125471115,0.15716103836894035,0.3385031074285507,0.034780706744641066,-0.054785608779639006,0.04425737075507641,-35.363258650000006,149.165224875,13005.5,26.181169986724854,14.4977285861969,0.5,109.25,1.0,-0.7427499294281006,0.27675001695752144,0.24953529611229897,71.75,1.721728265285492,19.25,1.0,1.0,1.0,1.0,0.0,1500.0,1500.0,1000.0,1500.0,10.0
17:15:36,AUTO,0.49744996428489685,0.121477410197258,0.36224138736724854,0.021345600485801697,-0.01807585172355175,0.06529472023248672,-35.3632595,149.1652257,14086.0,24.836503982543945,15.480103492736816,1.0,106.0,1.0,-0.7614184617996216,0.23100000619888306,0.3309863209724426,73.0,1.665654182434082,20.0,1.0,1.0,1.0,1.0,0.0,1500.0,1500.0,1000.0,1500.0,10.0
17:15:37,AUTO,0.4638575091958046,0.1484537422657013,0.3951544091105461,-0.035291400738060474,0.028718231711536646,-0.003634525928646326,-35.363259525,149.1652316,16373.0,21.29371213912964,17.469546794891357,2.0,120.75,0.0,-0.7100842148065567,0.4062500223517418,0.40782593935728073,73.75,1.6403622031211853,22.0,1.0,1.0,1.0,1.0,0.0,1500.0,1500.0,1000.0,1500.0,10.0
17:15:38,AUTO,0.4463561773300171,0.16162127256393433,0.3974776566028595,-0.015947166830301285,0.011426903307437897,-0.013074456714093685,-35.3632595,149.1652339,17426.0,20.8181095123291,17.57887077331543,2.0,133.0,0.0,-0.6964343190193176,0.3140000104904175,0.2980857491493225,73.0,1.6712353229522705,22.0,1.0,1.0,1.0,1.0,0.0,1500.0,1500.0,1000.0,1500.0,10.0
17:15:39,AUTO,0.4228789508342743,0.1888597495853901,0.3636324927210808,-0.01170948683284223,0.009001652477309108,-0.03661516960710287,-35.363260049999994,149.16523669999998,19794.25,19.778837203979492,17.868931770324707,2.0,161.5,0.0,-0.7343881130218506,0.1482500061392784,0.15933368727564812,70.5,1.7182754576206207,20.5,1.0,1.0,1.0,1.0,0.0,1500.0,1500.0,1000.0,1500.0,10.0
17:15:40,AUTO,0.41120409965515137,0.20288479328155518,0.3436814248561859,-0.012188361957669258,0.006545121781527996,-0.03655778616666794,-35.3632603,149.1652375,20890.0,19.27303123474121,18.00983238220215,2.0,175.0,0.0,-0.7674719095230103,0.11000000685453415,0.1243201419711113,69.0,1.7318596839904785,19.0,1.0,1.0,1.0,1.0,0.0,1500.0,1500.0,1000.0,1500.0,10.0
17:15:41,AUTO,0.3453911319375038,0.24155161157250404,0.21515106223523617,-0.057318191044032574,-0.03072645701467991,-0.23964207619428635,-35.363260525,149.165238275,23317.25,19.07204580307007,19.318154335021973,2.5,194.0,0.0,-0.8577410727739334,0.056750002317130566,0.07455194089561701,63.75,1.7362869679927826,11.75,1.0,1.0,1.0,1.0,0.0,1500.0,1500.0,1000.0,1500.0,10.0
17:15:42,AUTO,0.241141214966774,0.2766212224960327,0.006663246545940638,-0.14578253030776978,-0.07825635373592377,-0.41588902473449707,-35.3632601,149.165238,24424.0,20.57027244567871,21.41058349609375,3.0,184.0,0.0,-0.9019091725349426,0.1510000079870224,0.23006458580493927,58.0,1.7559303045272827,0.0,1.0,1.0,1.0,1.0,0.0,1500.0,1500.0,1000.0,1500.0,10.0
17:15:43,AUTO,0.2097899690270424,0.33563853055238724,-0.13034548796713352,0.0684704752638936,0.060603780671954155,0.034713765140622854,-35.3632556,149.16523130000002,26868.0,21.98680019378662,20.93570613861084,3.0,143.0,0.5,-1.0069274604320526,0.6930000334978104,0.648792177438736,47.5,1.6749745607376099,352.0,1.0,1.0,1.0,1.0,0.0,1500.0,1500.0,1000.0,1500.0,10.0
17:15:44,AUTO,0.25531205534935,0.3648046553134918,-0.10268077999353409,0.037300340831279755,0.04464234411716461,0.02419247291982174,-35.3632535,149.165228,27914.0,21.920351028442383,21.01005744934082,3.0,138.0,1.0,-0.9856786727905273,0.5720000267028809,0.43984922766685486,48.0,1.593932867050171,354.0,1.0,1.0,1.0,1.0,0.0,1500.0,1500.0,1000.0,1500.0,10.0
17:15:45,AUTO,0.29391422867774963,0.4017016962170601,-0.06950493529438972,0.007407744386000559,0.023281247355043888,0.011484433431178331,-35.363252025,149.165226325,30109.25,21.248427391052246,21.688843727111816,3.75,137.5,1.0,-0.849728986620903,0.12750000413507223,0.1586748817935586,52.5,1.5857295393943787,355.5,1.0,1.0,1.0,1.0,0.0,1500.0,1500.0,1000.0,1500.0,10.0
17:15:46,AUTO,0.30045393109321594,0.41139864921569824,-0.05847761780023575,0.0009326180443167686,0.017614826560020447,0.00928336288779974,-35.3632526,149.1652274,31122.0,20.93973159790039,21.987037658691406,4.0,139.0,1.0,-0.7995532155036926,0.26500001549720764,0.3485519587993622,55.0,1.6170774698257446,356.0,1.0,1.0,1.0,1.0,0.0,1500.0,1500.0,1000.0,1500.0,10.0
17:15:47,AUTO,0.3567170351743698,0.4270201101899147,-0.04349801782518625,0.030433508101850748,-1.8175574950873852e-05,0.011666658741887659,-35.363256275,149.165233325,33321.0,16.19220995903015,21.50626230239868,3.5,150.75,0.25,-0.6613152921199799,0.6200000196695328,0.6877466589212418,71.5,1.5035417079925537,357.0,1.0,1.0,1.0,1.0,0.0,1500.0,1500.0,1000.0,1500.0,10.0
17:15:48,AUTO,0.36287227272987366,0.39890554547309875,-0.0258584413677454,-0.08246852457523346,-0.12149403244256973,0.1198815181851387,-35.3632585,149.1652374,34251.0,10.269780158996582,19.914039611816406,3.0,177.0,0.0,-0.5293236970901489,0.7640000581741333,0.8017809987068176,80.0,1.4243038892745972,358.0,1.0,1.0,1.0,1.0,0.0,1500.0,1500.0,1000.0,1500.0,10.0
17:15:49,AUTO,0.2501279264688492,0.32694848626852036,0.05414089560508728,-0.038330903626047075,-0.017149397870525718,0.06431054789572954,-35.363262025,149.165243525,36403.0,8.752050280570984,17.834676265716553,3.0,265.5,0.0,-0.34175780415534973,0.3280000202357769,0.28149181976914406,73.0,1.6937015354633331,2.5,1.0,1.0,1.0,1.0,0.0,1500.0,1500.0,1000.0,1500.0,10.0
17:15:50,AUTO,0.25457218289375305,0.3037365972995758,0.09650932252407074,0.010852022096514702,-0.020253166556358337,0.08411390334367752,-35.3632633,149.1652428,37501.0,11.79112720489502,15.918624877929688,2.0,282.0,0.0,-0.3722314238548279,0.3050000071525574,0.34579578042030334,69.0,1.7898621559143066,5.0,1.0,1.0,1.0,1.0,0.0,1500.0,1500.0,1000.0,1500.0,10.0
17:15:51,AUTO,0.31228040158748627,0.23387406766414642,0.2110602706670761,0.04269107128493488,-0.06275114882737398,0.07938125543296337,-35.363265475000006,149.16523642500002,40059.5,19.61768627166748,11.82428503036499,1.25,105.25,0.0,-0.5889025777578354,0.4987500384449959,0.46313951909542084,62.5,1.861836314201355,11.5,1.0,1.0,1.0,1.0,0.0,1500.0,1500.0,1000.0,1500.0,10.0
17:15:52,AUTO,0.34817415475845337,0.17325106263160706,0.21450699865818024,0.038188353180885315,-0.09004674106836319,-0.06853552907705307,-35.363266,149.1652333,41241.0,22.368227005004883,11.44416332244873,1.0,44.0,0.0,-0.7062768340110779,0.44300001859664917,0.34233054518699646,60.0,1.8616364002227783,12.0,1.0,1.0,1.0,1.0,0.0,1500.0,1500.0,1000.0,1500.0,10.0
17:15:53,AUTO,0.2651422321796417,0.23460058122873306,-0.0850899200886488,0.014274492859840393,0.041878156262100674,-0.06846553809009492,-35.363262675,149.16522882499999,43775.5,25.445261478424072,16.1268253326416,3.0,86.75,0.0,-0.9095385372638702,0.547000028192997,0.5644251853227615,50.0,1.7514135539531708,354.5,1.0,1.0,1.0,1.0,0.0,1500.0,1500.0,1000.0,1500.0,10.0
17:15:54,AUTO,0.2987436056137085,0.2662018835544586,-0.07495663315057755,0.06477034091949463,0.05538854002952576,0.03362658992409706,-35.3632599,149.1652263,44867.0,25.5452880859375,16.269290924072266,3.0,105.0,1.0,-0.938525378704071,0.6390000581741333,0.5648477673530579,49.0,1.6729295253753662,355.0,1.0,1.0,1.0,1.0,0.0,1500.0,1500.0,1000.0,1500.0,10.0
17:15:55,AUTO,0.36469288170337677,0.31396712362766266,-0.03577055782079697,0.017506345408037305,0.03358997777104378,0.0076651874696835876,-35.363256025,149.1652241,47138.0,25.0498104095459,17.067688941955566,4.0,119.5,1.0,-0.8719995021820068,0.2292500138282776,0.1942954808473587,52.5,1.599195808172226,357.5,1.0,1.0,1.0,1.0,0.0,1500.0,1500.0,1000.0,1500.0,10.0
17:15:56,AUTO,0.37584400177001953,0.3295820355415344,-0.02396976202726364,0.0080679040402174,0.02551768533885479,0.010323558934032917,-35.3632556,149.1652251,48156.0,24.725908279418945,17.551664352416992,4.0,123.0,1.0,-0.8281444907188416,0.2240000069141388,0.29137498140335083,55.0,1.606493592262268,358.0,1.0,1.0,1.0,1.0,0.0,1500.0,1500.0,1000.0,1500.0,10.0
17:15:57,AUTO,0.41567687690258026,0.3414851576089859,-0.0023940071259858087,0.04206199198961258,0.013126878766342998,0.005685521638952196,-35.363257175,149.165231325,50392.25,19.58798885345459,17.400543212890625,4.0,135.75,0.25,-0.7217980772256851,0.5597500205039978,0.610545352101326,66.5,1.5451139509677887,269.25,1.0,1.0,1.0,1.0,0.0,1500.0,1500.0,1000.0,1500.0,10.0
17:15:58,AUTO,0.4363294541835785,0.33816856145858765,0.007023414131253958,-0.03886565566062927,-0.0583512969315052,0.06424212455749512,-35.3632584,149.1652356,51356.0,13.55919361114502,17.138017654418945,4.0,157.0,0.0,-0.6216015219688416,0.7150000333786011,0.7716223001480103,76.0,1.4569751024246216,0.0,1.0,1.0,1.0,1.0,0.0,1500.0,1500.0,1000.0,1500.0,10.0
17:15:59,AUTO,0.2707027718424797,0.30985014140605927,0.03729936294257641,-0.06173277506604791,-0.0008665205969009548,0.028401747345924377,-35.363260249999996,149.16524375,53487.5,8.98228669166565,17.286137580871582,4.0,246.0,0.0,-0.41544676572084427,0.333500012755394,0.24982726946473122,71.25,1.6692984104156494,1.5,1.0,1.0,1.0,1.0,0.0,1500.0,1500.0,1000.0,1500.0,10.0
17:16:00,AUTO,0.2548326849937439,0.3044491410255432,0.05875610560178757,-0.01329411007463932,0.0012830239720642567,0.04603726789355278,-35.363261,149.165244,54576.0,11.067347526550293,16.55179214477539,4.0,254.0,0.0,-0.44136229157447815,0.15600000321865082,0.1945311576128006,68.0,1.7764413356781006,3.0,1.0,1.0,1.0,1.0,0.0,1500.0,1500.0,1000.0,1500.0,10.0
17:16:01,AUTO,0.2853633016347885,0.28117628395557404,0.14423546195030212,-0.004064472392201424,-0.00014437930076383054,0.07429247722029686,-35.3632623,149.165239375,57126.5,16.311911582946777,14.884573459625244,3.0,288.0,0.0,-0.6527758687734604,0.38725002110004425,0.35634317249059677,64.5,1.8459225594997406,7.5,1.0,1.0,1.0,1.0,0.0,1500.0,1500.0,1000.0,1500.0,10.0
17:16:02,AUTO,0.28490346670150757,0.2670724093914032,0.1910502165555954,-0.04531916230916977,-0.004853891674429178,0.08438820391893387,-35.3632627,149.1652367,58309.0,19.260726928710938,14.47162914276123,3.0,67.0,0.0,-0.7685302495956421,0.3890000283718109,0.3711746633052826,61.0,1.8513290882110596,10.0,1.0,1.0,1.0,1.0,0.0,1500.0,1500.0,1000.0,1500.0,10.0
17:16:03,AUTO,0.2318095974624157,0.265554565936327,-0.02113339537754655,0.0463056571315974,0.030333549482747912,-0.07047718856483698,-35.363261025,149.16522975,60828.25,25.100231647491455,16.738637447357178,4.0,100.5,0.0,-0.9559753239154816,0.6022500246763229,0.6131631433963776,49.75,1.7276163697242737,268.5,1.0,1.0,1.0,1.0,0.0,1500.0,1500.0,1000.0,1500.0,10.0
17:16:04,AUTO,0.2770335376262665,0.2927786111831665,-0.015466496348381042,0.07470583915710449,0.049021948128938675,0.03076132759451866,-35.3632587,149.1652264,61905.0,24.96448516845703,17.191627502441406,4.0,112.0,1.0,-0.9703320264816284,0.6650000214576721,0.5962195992469788,48.0,1.6483032703399658,359.0,1.0,1.0,1.0,1.0,0.0,1500.0,1500.0,1000.0,1500.0,10.0
17:16:05,AUTO,0.3386322557926178,0.3452034071087837,0.02043375838547945,0.012076035724021494,0.03742092987522483,0.006580324145033956,-35.363254325,149.165224175,64157.25,23.653095245361328,19.000664234161377,5.25,126.0,1.0,-0.8786706328392029,0.2837500162422657,0.2513614185154438,51.5,1.587709665298462,0.75,1.0,1.0,1.0,1.0,0.0,1500.0,1500.0,1000.0,1500.0,10.0
17:16:06,AUTO,0.3460840880870819,0.3630320131778717,0.03150817006826401,-0.001005524187348783,0.02845783345401287,0.006463932804763317,-35.3632535,149.1652252,65169.0,23.01736068725586,19.786867141723633,6.0,131.0,1.0,-0.8285888433456421,0.242000013589859,0.2850877344608307,54.0,1.6027532815933228,1.0,1.0,1.0,1.0,1.0,0.0,1500.0,1500.0,1000.0,1500.0,10.0
17:16:07,AUTO,0.3809141218662262,0.3842468038201332,0.05157199967652559,0.04222704749554396,0.017318834317848086,0.00474282557843253,-35.363255025,149.16523055000002,67423.5,19.947082996368408,19.808353900909424,6.0,141.5,0.5,-0.7418359220027924,0.4737500324845314,0.5339493006467819,64.0,1.5712764263153076,2.5,1.0,1.0,1.0,1.0,0.0,1500.0,1500.0,1000.0,1500.0,10.0
17:16:08,AUTO,0.4092533588409424,0.39178094267845154,0.057170141488313675,0.041229136288166046,0.009688708931207657,0.0019585159607231617,-35.3632567,149.1652339,68406.0,15.746194839477539,18.67810821533203,5.0,151.0,0.0,-0.6585937142372131,0.6200000047683716,0.6816607713699341,74.0,1.4885585308074951,3.0,1.0,1.0,1.0,1.0,0.0,1500.0,1500.0,1000.0,1500.0,10.0
17:16:09,AUTO,0.3184177726507187,0.3085963502526283,0.12605777569115162,-0.08570100460201502,-0.0010742166778072715,0.04614907503128052,-35.3632603,149.165241675,70488.75,9.261605024337769,17.694556713104248,5.0,236.5,0.0,-0.41032469272613525,0.46250003203749657,0.3633185960352421,74.5,1.5985259115695953,6.75,1.0,1.0,1.0,1.0,0.0,1500.0,1500.0,1000.0,1500.0,10.0
17:16:10,AUTO,0.2938799560070038,0.2954399585723877,0.15564566850662231,-0.011364396661520004,-0.012815391644835472,0.05947780981659889,-35.3632614,149.1652426,71538.0,11.434308052062988,16.552751541137695,5.0,255.0,0.0,-0.3970116972923279,0.17800000309944153,0.19292345643043518,71.0,1.7311028242111206,8.0,1.0,1.0,1.0,1.0,0.0,1500.0,1500.0,1000.0,1500.0,10.0
17:16:11,AUTO,0.3371433913707733,0.23683197423815727,0.2601076811552048,0.015823135850951076,-0.02220303099602461,0.10041025467216969,-35.36326325,149.1652378,74056.5,18.753626346588135,13.344112157821655,4.0,169.25,0.0,-0.5781237781047821,0.44575002044439316,0.43685293197631836,64.25,1.8456534445285797,14.5,1.0,1.0,1.0,1.0,0.0,1500.0,1500.0,1000.0,1500.0,10.0
17:16:12,AUTO,0.3601178824901581,0.19461266696453094,0.3136662542819977,0.04914511740207672,-0.08857589960098267,0.08223304897546768,-35.363264,149.1652348,75234.0,22.290843963623047,12.176140785217285,4.0,56.0,0.0,-0.6936376690864563,0.46700000762939453,0.4363127052783966,62.0,1.8590548038482666,17.0,1.0,1.0,1.0,1.0,0.0,1500.0,1500.0,1000.0,1500.0,10.0
17:16:13,AUTO,0.29068661481142044,0.20077501982450485,0.017495902255177498,-0.04141119075939059,-0.005332944914698601,-0.2060643156291917,-35.363262275,149.16522915,77790.75,25.934088230133057,15.322552680969238,5.0,89.75,0.0,-0.9092919677495956,0.49425002932548523,0.5598497912287712,51.25,1.7687819302082062,180.5,1.0,1.0,1.0,1.0,0.0,1500.0,1500.0,1000.0,1500.0,10.0
17:16:14,AUTO,0.28738778829574585,0.2347794622182846,-0.02697201445698738,0.07225839793682098,0.054446808993816376,0.03647013008594513,-35.3632595,149.1652259,78900.0,25.94474220275879,15.606552124023438,5.0,107.0,1.0,-0.9525878429412842,0.7780000567436218,0.7785381078720093,48.0,1.6920756101608276,358.0,1.0,1.0,1.0,1.0,0.0,1500.0,1500.0,1000.0,1500.0,10.0
17:16:15,AUTO,0.3727226257324219,0.2834049388766289,0.015426262514665723,0.03201850410550833,0.03398124547675252,0.00606228644028306,-35.363253525,149.16521949999998,81187.75,25.693734169006348,16.04215908050537,5.25,120.25,1.25,-0.9094799607992172,0.499750018119812,0.38896819576621056,49.75,1.5982710421085358,0.5,1.0,1.0,1.0,1.0,0.0,1500.0,1500.0,1000.0,1500.0,10.0
17:16:16,AUTO,0.3900812566280365,0.29960596561431885,0.025777485221624374,0.010258963331580162,0.026444680988788605,0.0064923702739179134,-35.3632519,149.1652184,82203.0,25.461776733398438,16.424240112304688,6.0,123.0,2.0,-0.8621191382408142,0.2550000250339508,0.17741785943508148,52.0,1.5929553508758545,1.0,1.0,1.0,1.0,1.0,0.0,1500.0,1500.0,1000.0,1500.0,10.0
17:16:17,AUTO,0.4041283279657364,0.3244045525789261,0.04569336213171482,0.014188422821462154,0.021147055085748434,0.006185760139487684,-35.3632511,149.16522035000003,84469.75,24.838635444641113,17.384477138519287,6.0,128.25,1.5,-0.7915429621934891,0.23375001177191734,0.2790238633751869,56.5,1.6363378167152405,2.0,1.0,1.0,1.0,1.0,0.0,1500.0,1500.0,1000.0,1500.0,10.0
17:16:18,AUTO,0.4249514043331146,0.3360593020915985,0.054981037974357605,0.04703591763973236,0.02667166292667389,0.003656235057860613,-35.3632515,149.1652223,85512.0,24.41668128967285,17.990676879882812,6.0,130.0,1.0,-0.7711620926856995,0.3460000157356262,0.3950114846229553,60.0,1.6182775497436523,3.0,1.0,1.0,1.0,1.0,0.0,1500.0,1500.0,1000.0,1500.0,10.0
17:16:19,AUTO,0.4731586277484894,0.3656122013926506,0.06420911848545074,-0.03302085306495428,0.031977465841919184,-0.023493117856560275,-35.36325385,149.1652307,87637.75,17.66628885269165,21.022252082824707,8.0,147.0,0.75,-0.5545971468091011,0.7292500287294388,0.7959953248500824,82.75,1.399592250585556,3.0,1.0,1.0,1.0,1.0,0.0,1500.0,1500.0,1000.0,1500.0,10.0
17:16:20,AUTO,0.4053288698196411,0.38612422347068787,0.054767705500125885,-0.1757946014404297,-0.022819604724645615,-0.010767383500933647,-35.3632552,149.1652361,88507.0,12.125807762145996,21.228139877319336,8.0,169.0,0.0,-0.36006835103034973,0.8550000190734863,0.8315050005912781,89.0,1.3318029642105103,3.0,1.0,1.0,1.0,1.0,0.0,1500.0,1500.0,1000.0,1500.0,10.0
17:16:21,AUTO,0.29446107149124146,0.3513343557715416,0.0780167244374752,-0.04439123161137104,-0.006985167681705207,0.0416695075109601,-35.3632588,149.165241775,90607.25,12.63521409034729,18.917001247406006,7.0,223.75,0.0,-0.20787840709090233,0.33150001615285873,0.2900993376970291,73.0,1.6476286351680756,4.0,1.0,1.0,1.0,1.0,0.0,1500.0,1500.0,1000.0,1500.0,10.0
17:16:22,AUTO,0.2502328157424927,0.3403105139732361,0.10633105039596558,-0.20350585877895355,-0.00793277844786644,0.0504145510494709,-35.3632602,149.1652413,91673.0,14.94075870513916,17.9528751373291,7.0,233.0,0.0,-0.36140623688697815,0.2939999997615814,0.32025080919265747,62.0,1.7058396339416504,6.0,1.0,1.0,1.0,1.0,0.0,1500.0,1500.0,1000.0,1500.0,10.0
17:16:23,AUTO,0.2406655102968216,0.2923964336514473,0.0711128693073988,0.1262828502804041,-0.017677515745162964,-0.0038126405561342835,-35.3632598,149.165229225,93737.75,25.882251739501953,15.535466432571411,6.0,111.25,0.25,-0.7808984369039536,1.0843333800633748,1.1052838166554768,36.333333333333336,1.1833183368047078,3.3333333333333335,1.0,1.0,1.0,1.0,0.0,1500.0,1500.0,1000.0,1500.0,10.0
17:16:24,AUTO,0.31417807936668396,0.28955957293510437,0.07262325286865234,0.11795253306627274,0.011977095156908035,0.010036109946668148,-35.3632574,149.1652221,94361.0,26.022953033447266,15.471444129943848,6.0,111.0,1.0,-0.7957617044448853,1.1405000686645508,1.0822656154632568,30.0,0.8312056064605713,4.0,1.0,1.0,1.0,1.0,0.0,1500.0,1500.0,1000.0,1500.0,10.0
17:16:25,AUTO,0.3697247728705406,0.3147086128592491,0.08952377177774906,-0.29235586198046803,0.027252153493463993,0.005799519567517564,-35.363248775,149.165211875,95014.5,25.0217924118042,17.10202121734619,7.0,122.0,2.25,-0.49662353098392487,0.9305000454187393,0.8840860277414322,28.25,0.23280485346913338,4.75,1.0,1.0,1.0,1.0,0.0,1500.0,1500.0,1000.0,1500.0,10.0
17:16:26,AUTO,0.3931751847267151,0.3281502425670624,0.09723655134439468,1.1333237886428833,0.024363448843359947,-0.004581577144563198,-35.3632445,149.1652088,95133.0,24.476722717285156,17.90630531311035,7.0,127.0,3.0,-0.3297363221645355,0.8520000576972961,0.7948822379112244,28.0,0.13902153074741364,5.0,1.0,1.0,1.0,1.0,0.0,1500.0,1500.0,1000.0,1500.0,10.0
17:16:27,AUTO,0.44706981629133224,0.22342783212661743,0.15235199593007565,-1.1445176005363464,0.10918300226330757,0.052199306490365416,-35.36323445,149.165204325,95080.75,27.42741346359253,12.27092432975769,10.25,331.0,91.75,-0.0823290990665555,0.9630000442266464,1.0110164731740952,28.5,-0.12107753194868565,8.0,1.0,1.0,1.0,1.0,0.0,1500.0,1500.0,1000.0,1500.0,10.0
17:16:28,AUTO,0.4329547584056854,0.28577539324760437,0.16928479075431824,0.11867228895425797,0.08346137404441833,-0.040585193783044815,-35.3632289,149.1652035,95014.0,26.09669303894043,15.307126998901367,11.0,331.0,91.0,-0.019843749701976776,0.9670000672340393,0.9158731698989868,28.0,-0.041710443794727325,9.0,1.0,1.0,1.0,1.0,0.0,1500.0,1500.0,1000.0,1500.0,10.0
17:16:29,AUTO,0.187629122287035,0.48692724853754044,-0.4315357357263565,-0.13739405944943428,-0.0180591547396034,-0.4069196078926325,-35.36322,149.16520037499998,94909.75,12.754876136779785,27.24338388442993,-20.0,331.0,90.0,0.03195800678804517,0.6953333417574564,0.6150620977083842,28.333333333333332,-0.06113864481449127,337.0,1.0,1.0,1.0,1.0,0.0,1500.0,1500.0,1000.0,1500.0,10.0
17:16:30,AUTO,0.136977419257164,0.500180184841156,-0.5240249633789062,-1.0648646354675293,-0.011543040163815022,0.08769445866346359,-35.363217,149.1651982,94850.0,10.84162425994873,28.142080307006836,-26.0,331.0,90.0,0.04283203184604645,0.62950000166893,0.5630365312099457,28.0,-0.10510390624403954,328.5,1.0,1.0,1.0,1.0,0.0,1500.0,1500.0,1000.0,1500.0,10.0
17:16:31,AUTO,0.24671094864606857,0.14844326581805944,-0.5185657888650894,1.1006567925214767,-0.33868613839149475,-0.026211983407847583,-35.363208799999995,149.16519186666665,94635.0,13.707869529724121,11.613067150115967,-27.333333333333332,331.0,88.66666666666667,0.07701497028271358,1.1216667294502258,1.3736678759257,25.666666666666668,-0.20547021428743997,330.0,1.0,1.0,1.0,1.0,0.0,1500.0,1500.0,1000.0,1500.0,10.0
17:16:32,AUTO,0.29042622447013855,-0.05987980589270592,-0.5431873798370361,1.1829317808151245,-0.29248329997062683,0.035779017955064774,-35.36319995,149.16518575,94477.5,15.34764051437378,-0.4504135847091675,-28.5,331.0,87.5,0.10484374687075615,2.1225000619888306,2.3344008922576904,26.5,-0.2820960134267807,328.5,1.0,1.0,1.0,1.0,0.0,1500.0,1500.0,1000.0,1500.0,10.0
17:16:33,AUTO,0.34171293675899506,-0.3485179990530014,-0.5922936201095581,0.05701792798936367,-0.11672131065279245,0.01565566041972488,-35.363158675,149.165157625,93906.25,19.083585739135742,-20.08861494064331,-31.75,331.0,82.25,0.28224119544029236,4.342250168323517,4.5604506731033325,39.0,-0.44189606606960297,325.5,1.0,1.0,1.0,1.0,0.0,1500.0,1500.0,1000.0,1500.0,10.0
17:16:34,AUTO,0.35225751996040344,-0.39745840430259705,-0.599841296672821,0.0382874421775341,-0.014563698321580887,0.007007554639130831,-35.3631348,149.165142,93607.0,19.56128692626953,-22.96266746520996,-33.0,331.0,79.0,0.39357420802116394,5.0960001945495605,5.225572109222412,48.0,-0.44595155119895935,325.0,1.0,1.0,1.0,1.0,0.0,1500.0,1500.0,1000.0,1500.0,10.0
17:16:35,AUTO,0.33631183207035065,-0.4067501053214073,-0.5945398509502411,-0.027042111032642424,-0.019875520141795278,0.01047989321523346,-35.363073325,149.16510332500002,93090.0,18.76954221725464,-23.829846382141113,-32.75,331.0,71.5,0.46303465217351913,5.786250114440918,5.8164098262786865,55.75,-0.28279154747724533,325.25,1.0,1.0,1.0,1.0,0.0,1500.0,1500.0,1000.0,1500.0,10.0
17:16:36,AUTO,0.3106841742992401,-0.42621102929115295,-0.5895177125930786,-0.05617966130375862,-0.03585945814847946,0.02283450774848461,-35.363044,149.165085,92901.0,17.290884017944336,-24.89371681213379,-32.0,331.0,68.0,0.43980467319488525,5.904000282287598,5.926987648010254,58.0,-0.2869918942451477,326.0,1.0,1.0,1.0,1.0,0.0,1500.0,1500.0,1000.0,1500.0,10.0
17:16:37,AUTO,0.24472658708691597,-0.4418117329478264,-0.5486760437488556,-0.030603081919252872,-0.0003103888302575797,0.02595946006476879,-35.362978825,149.16504175,92481.0,13.984216690063477,-26.806161403656006,-32.0,331.0,59.5,0.38303954154253006,6.042750358581543,6.0475112199783325,60.25,-0.28537072241306305,328.0,1.0,1.0,1.0,1.0,0.0,1500.0,1500.0,1000.0,1500.0,10.0
17:16:38,AUTO,0.22788147628307343,-0.4435994327068329,-0.5382768511772156,-0.01406935416162014,0.005257489159703255,0.006356649566441774,-35.3629493,149.1650212,92290.0,13.222940444946289,-27.17413330078125,-32.0,331.0,56.0,0.3557421863079071,6.068000316619873,6.072553634643555,60.0,-0.29870396852493286,329.0,1.0,1.0,1.0,1.0,0.0,1500.0,1500.0,1000.0,1500.0,10.0
17:16:39,AUTO,0.24965351447463036,-0.43922942876815796,-0.5899649858474731,0.0007805044879205525,-0.005412384867668152,-0.06077005434781313,-35.3628903,149.164979,91902.66666666667,14.38364346822103,-26.601534525553387,-32.0,331.0,48.333333333333336,0.2973860601584117,6.092333634694417,6.093930244445801,60.333333333333336,-0.3224785526593526,326.0,1.0,1.0,1.0,1.0,0.0,1500.0,1500.0,1000.0,1500.0,10.0
17:16:40,AUTO,0.2677183151245117,-0.4307306408882141,-0.6346288919448853,-0.008673353120684624,0.0008695567958056927,-0.0667954608798027,-35.36286065,149.1649578,91695.5,15.31260347366333,-26.107277870178223,-32.0,331.0,44.5,0.2756054699420929,6.106000185012817,6.103290319442749,60.0,-0.33911237120628357,323.5,1.0,1.0,1.0,1.0,0.0,1500.0,1500.0,1000.0,1500.0,10.0
17:16:41,AUTO,0.28761614362398785,-0.4137725830078125,-0.6863818764686584,0.008488596572230259,-0.0007747311610728502,0.0027011167258024216,-35.36279483333333,149.16491223333335,91205.33333333333,15.86666170756022,-25.79313850402832,-32.0,331.0,36.0,0.2533951699733734,6.122666835784912,6.103410720825195,60.0,-0.36706896622975665,320.0,1.0,1.0,1.0,1.0,0.0,1500.0,1500.0,1000.0,1500.0,10.0
17:16:42,AUTO,0.28782418370246887,-0.414556160569191,-0.68650221824646,-0.00661006907466799,0.003476080426480621,-0.006746568949893117,-35.3627647,149.164892,90968.5,15.377777576446533,-26.076111793518066,-32.0,332.0,32.0,0.25211912393569946,6.125000238418579,6.10286545753479,61.0,-0.38413645327091217,320.0,1.0,1.0,1.0,1.0,0.0,1500.0,1500.0,1000.0,1500.0,10.0
17:16:43,AUTO,0.2835419873396556,-0.3989632725715637,-0.7028564214706421,0.01161493407562375,0.015142590583612522,0.027105305964748066,-35.362698,149.16484836666666,90443.33333333333,14.31641419728597,-25.67739423116048,-32.0,332.0,23.666666666666668,0.2471451759338379,6.131000359853108,6.084808190663655,60.666666666666664,-0.3569772144158681,319.3333333333333,1.0,1.0,1.0,1.0,0.0,1500.0,1500.0,1000.0,1500.0,10.0
17:16:44,AUTO,0.2730218768119812,-0.39557279646396637,-0.6452352404594421,0.025005624163895845,0.037032475695014,0.144937165081501,-35.362667349999995,149.16482875000003,90230.5,13.246219158172607,-22.918636322021484,-31.0,331.5,20.0,0.21971679478883743,6.106000185012817,6.059624195098877,58.0,-0.30964626371860504,322.5,1.0,1.0,1.0,1.0,0.0,1500.0,1500.0,1000.0,1500.0,10.0
17:16:45,AUTO,0.18641139194369316,-0.20705104991793633,-0.5061394721269608,-0.03329056175425649,0.19190146028995514,-0.027909378055483103,-35.362596675000006,149.164785425,89935.25,8.820629755655924,-11.134373346964518,-29.333333333333332,330.3333333333333,11.666666666666666,0.01013997383415699,5.697000344594319,5.515659650166829,37.666666666666664,-0.11328191061814626,330.3333333333333,1.0,1.0,1.0,1.0,0.0,1500.0,1500.0,1000.0,1500.0,10.0
17:16:46,AUTO,0.17548152804374695,-0.05190455261617899,-0.500603511929512,0.01426883414387703,0.21912413090467453,-0.024759210646152496,-35.3625659,149.1647658,89850.0,8.856769561767578,-3.5719293355941772,-29.0,329.6666666666667,8.0,-0.1471614514787992,5.051000118255615,4.806185881296794,24.333333333333332,-0.14108618845542273,331.0,1.0,1.0,1.0,1.0,0.0,1500.0,1500.0,1000.0,1500.0,10.0
17:16:47,AUTO,0.20182062685489655,0.1895772765080134,-0.4716816047827403,1.1798014243443806,0.2408247192700704,-0.029652783026297886,-35.36252963333334,149.16474083333333,89533.33333333333,11.182871500651041,10.834174791971842,-27.0,328.6666666666667,2.6666666666666665,-0.1414648418625196,3.645333449045817,3.3939700921376548,20.0,-0.3622293968995412,332.3333333333333,1.0,1.0,1.0,1.0,0.0,1500.0,1500.0,1000.0,1500.0,10.0
17:16:48,AUTO,0.2533174902200699,0.33045482635498047,-0.4084446281194687,1.4523612260818481,0.2522932142019272,0.06678913533687592,-35.3625145,149.16473059999998,89319.5,14.549103260040283,18.603673934936523,-23.5,325.0,0.5,-0.06097656115889549,2.8745001554489136,2.5850309133529663,20.5,-0.3217427283525467,336.0,1.0,1.0,1.0,1.0,0.0,1500.0,1500.0,1000.0,1500.0,10.0
17:16:49,AUTO,0.5223440329233805,0.02018503254900376,0.08289589484532674,0.3575053910414378,0.2137526571750641,0.7943744659423828,-35.36249183333334,149.1647214,88854.66666666667,29.336653391520183,2.224560596048832,5.0,173.0,1.3333333333333333,0.1231998677055041,1.7043334245681763,1.7940220832824707,27.666666666666668,-0.2939704855283101,124.33333333333333,1.0,1.0,1.0,1.0,0.0,1500.0,1500.0,1000.0,1500.0,10.0
17:16:50,AUTO,0.46640245616436005,0.1517534777522087,0.7082946002483368,-1.691443681716919,0.8018712997436523,0.710919976234436,-35.362482099999994,149.16472184999998,88678.5,27.397868156433105,8.515901327133179,37.0,111.0,127.0,0.1516455039381981,1.6725000739097595,1.412779450416565,26.0,-0.24471935629844666,40.0,1.0,1.0,1.0,1.0,0.0,1500.0,1500.0,1000.0,1500.0,10.0
17:16:51,AUTO,0.4410645167032878,-0.21597007475793362,1.6345810492833455,0.10021110375722249,-0.6294186313947042,0.7467965881029764,-35.36247683333333,149.16470546666667,88193.0,25.315219243367512,-11.316456854343414,90.66666666666667,111.0,129.0,0.2703287750482559,1.8383334080378215,1.8979179461797078,27.333333333333332,-0.3719566563765208,93.33333333333333,1.0,1.0,1.0,1.0,0.0,1500.0,1500.0,1000.0,1500.0,10.0
17:16:52,AUTO,0.2159847617149353,-0.4898126870393753,1.910233199596405,-1.1572355031967163,-0.023040744476020336,0.16921595111489296,-35.36247825,149.16469525,87949.0,15.372393608093262,-25.856060028076172,104.0,111.0,130.0,0.34141112864017487,1.421000063419342,1.2385343313217163,28.0,-0.3869193345308304,109.0,1.0,1.0,1.0,1.0,0.0,1500.0,1500.0,1000.0,1500.0,10.0
17:16:53,AUTO,0.17041821777820587,-0.49408454696337384,1.9064334233601887,-0.13266199827194214,-0.006730705965310335,-0.0057699183622996015,-35.36247936666666,149.1646851666667,87392.33333333333,11.233712196350098,-27.99754524230957,107.33333333333333,111.0,130.66666666666666,0.5358430743217468,0.4023333489894867,0.4537111719449361,28.0,-0.370984415213267,109.0,1.0,1.0,1.0,1.0,0.0,1500.0,1500.0,1000.0,1500.0,10.0
17:16:54,AUTO,0.1846803625424703,-0.4947408139705658,1.906440019607544,1.1774874528249104,0.0008955996405954162,0.006112627762680252,-35.3624788,149.16468273333334,87107.33333333333,10.872135798136393,-28.13175328572591,108.0,111.0,131.0,0.6385221282641093,0.2813333471616109,0.36025522152582806,28.333333333333332,-0.36190510789553326,109.0,1.0,1.0,1.0,1.0,0.0,1500.0,1500.0,1000.0,1500.0,10.0
17:16:55,AUTO,0.1779056042432785,-0.492999146382014,1.9021799961725872,-0.8910803099473318,-4.2431832601626716e-05,0.00040765758603811264,-35.3624773,149.16468006666665,86691.66666666667,10.945069948832193,-28.105839411417644,107.33333333333333,111.0,131.0,0.7791080673535665,0.20866667727629343,0.30136170983314514,28.0,-0.30012794335683185,108.33333333333333,1.0,1.0,1.0,1.0,0.0,1500.0,1500.0,1000.0,1500.0,10.0
17:16:56,AUTO,0.17862998942534128,-0.49304519097010296,1.9017863670984905,0.17315778136253357,-0.0014257671233887474,-0.005301860782007377,-35.3624764,149.16467883333334,86479.0,10.975627263387045,-28.094846725463867,107.33333333333333,111.0,131.0,0.8443131248156229,0.1893333444992701,0.2802266478538513,28.333333333333332,-0.27897419532140094,108.0,1.0,1.0,1.0,1.0,0.0,1500.0,1500.0,1000.0,1500.0,10.0
17:16:57,AUTO,0.18196365237236023,-0.49096550544102985,1.8986732165018718,-0.7154364883899689,0.006603094826762875,-0.0030520628206431866,-35.36247483333333,149.16467730000002,86168.33333333333,11.250653902689615,-27.99350102742513,107.0,111.0,131.0,0.9348111748695374,0.1816666771968206,0.2597822497288386,28.666666666666668,-0.24276700615882874,108.0,1.0,1.0,1.0,1.0,0.0,1500.0,1500.0,1000.0,1500.0,10.0
17:16:58,AUTO,0.19502356151739755,-0.48888127009073895,1.89735742410024,0.49404191474119824,0.0016421697412927945,-0.006904049000392358,-35.3624737,149.16467663333333,86004.66666666667,11.623830159505209,-27.850657780965168,107.0,111.0,131.0,0.9798307021458944,0.20066668093204498,0.24616718292236328,28.666666666666668,-0.22969102362791696,108.0,1.0,1.0,1.0,1.0,0.0,1500.0,1500.0,1000.0,1500.0,10.0
17:16:59,AUTO,0.2049980660279592,-0.4815276861190796,1.891735553741455,-0.8004039525985718,0.007202948909252882,-0.0068906135857105255,-35.362471633333335,149.164676,85771.33333333333,12.599335352579752,-27.450376510620117,107.0,111.0,132.0,1.0348827441533406,0.18666667739550272,0.23397539059321085,29.0,-0.20164819061756134,108.0,1.0,1.0,1.0,1.0,0.0,1500.0,1500.0,1000.0,1500.0,10.0
17:17:00,AUTO,0.2298278013865153,-0.4774104654788971,1.8894333839416504,0.7759225269158682,0.0018395116397490103,-0.0036320569925010204,-35.362470333333334,149.1646757,85642.66666666667,13.158162752787272,-27.203671137491863,107.0,111.0,132.0,1.0650715827941895,0.18700000643730164,0.232479527592659,29.0,-0.2019492487112681,108.0,1.0,1.0,1.0,1.0,0.0,1500.0,1500.0,1000.0,1500.0,10.0
17:17:01,AUTO,0.23754856983820596,-0.4699477553367615,1.8852044343948364,-0.06083791454633077,0.005167875128487746,-0.009543164788434902,-35.362468166666666,149.16467533333332,85456.66666666667,14.043639183044434,-26.78277587890625,107.0,111.0,132.0,1.098694642384847,0.18333333730697632,0.2324027270078659,29.0,-0.17771483461062113,107.66666666666667,1.0,1.0,1.0,1.0,0.0,1500.0,1500.0,1000.0,1500.0,10.0
17:17:02,AUTO,0.2584028442700704,-0.46567512551943463,1.8838183482487996,0.32630446553230286,0.013923838657016555,-0.004386625563104947,-35.3624668,149.16467509999998,85346.66666666667,14.51498031616211,-26.54372787475586,107.0,111.0,132.0,1.1222525835037231,0.19366667171319327,0.25346938769022626,29.333333333333332,-0.1880836933851242,107.0,1.0,1.0,1.0,1.0,0.0,1500.0,1500.0,1000.0,1500.0,10.0
17:17:03,AUTO,0.2623891532421112,-0.4600891371568044,1.881130854288737,0.4150691032409668,0.0007026093080639839,-0.006971841445192695,-35.36246453333333,149.16467466666668,85179.33333333333,15.1404816309611,-26.21046257019043,107.0,111.0,132.0,1.1539029677708943,0.21366667747497559,0.24170138438542685,29.0,-0.16376490394274393,107.0,1.0,1.0,1.0,1.0,0.0,1500.0,1500.0,1000.0,1500.0,10.0
17:17:04,AUTO,0.2682462235291799,-0.4562254250049591,1.879445473353068,-0.21922567486763,0.009010319287578264,-0.001651817001402378,-35.3624631,149.16467436666667,85082.0,15.473346710205078,-26.024797439575195,107.0,111.0,132.0,1.1720930735270183,0.23533334334691366,0.26120010018348694,29.333333333333332,-0.16900920867919922,107.0,1.0,1.0,1.0,1.0,0.0,1500.0,1500.0,1000.0,1500.0,10.0
17:17:05,AUTO,0.2798999051253001,-0.4547810157140096,1.8784116506576538,0.6314646005630493,0.0061960655730217695,0.005515633849427104,-35.36246043333333,149.1646736333333,84926.33333333333,15.638450304667154,-25.930702209472656,107.0,112.0,132.0,1.20085604985555,0.28033334016799927,0.24745430052280426,29.0,-0.15332814554373422,107.0,1.0,1.0,1.0,1.0,0.0,1500.0,1500.0,1000.0,1500.0,10.0
17:17:06,AUTO,0.26164039969444275,-0.45260873436927795,1.8781352837880452,-0.8222876191139221,0.0007716258987784386,-0.005416210275143385,-35.3624587,149.16467303333334,84832.0,15.829378128051758,-25.81995391845703,107.0,112.0,132.0,1.220240871111552,0.298333336909612,0.25681652625401813,28.666666666666668,-0.15213661889235178,107.0,1.0,1.0,1.0,1.0,0.0,1500.0,1500.0,1000.0,1500.0,10.0
17:17:07,AUTO,0.2709576487541199,-0.4481796125570933,1.8762340148289998,-0.6319872985283533,0.0015458951238542795,-0.004263917100615799,-35.36245543333333,149.16467149999997,84674.0,16.309242884318035,-25.532154719034832,107.0,112.0,133.0,1.245214819908142,0.25800001124540967,0.2968611419200897,29.333333333333332,-0.1471058577299118,107.0,1.0,1.0,1.0,1.0,0.0,1500.0,1500.0,1000.0,1500.0,10.0
17:17:08,AUTO,0.2897220104932785,-0.448197603225708,1.8746895790100098,0.8638637065887451,-0.00440260162577033,-0.00015155301662161946,-35.36245425,149.16467045,84605.0,16.336441040039062,-25.515756607055664,107.0,112.0,133.0,1.2540575861930847,0.23600001633167267,0.3116716295480728,29.0,-0.14408282935619354,107.0,1.0,1.0,1.0,1.0,0.0,1500.0,1500.0,1000.0,1500.0,10.0
17:17:09,AUTO,0.2682984670003255,-0.4521048367023468,1.8743027051289876,-0.5610349625349045,-0.00939113856293261,5.328591214492917e-05,-35.362452766666664,149.1646672,84463.0,15.950226147969564,-25.747836430867512,107.0,112.0,133.0,1.2730435927708943,0.287333349386851,0.34885160128275555,29.0,-0.13221299648284912,107.0,1.0,1.0,1.0,1.0,0.0,1500.0,1500.0,1000.0,1500.0,10.0
17:17:10,AUTO,0.2742701768875122,-0.45912884672482807,1.8764127095540364,0.4620708227157593,-0.00260164860325555,0.008868722710758448,-35.36245253333333,149.16466483333332,84380.0,15.276873588562012,-26.133628845214844,107.0,112.0,133.0,1.283473292986552,0.3080000082651774,0.3593023419380188,29.0,-0.13314766188462576,107.0,1.0,1.0,1.0,1.0,0.0,1500.0,1500.0,1000.0,1500.0,10.0
17:17:11,AUTO,0.24780890345573425,-0.4695120056470235,1.8789891004562378,0.5561499508718649,-0.005821796910216411,0.006471847960104545,-35.362452366666666,149.16466056666664,84249.0,14.080083847045898,-26.764548619588215,107.0,112.0,134.0,1.29533855120341,0.30766668915748596,0.36438581347465515,29.0,-0.1267153521378835,107.0,1.0,1.0,1.0,1.0,0.0,1500.0,1500.0,1000.0,1500.0,10.0
17:17:12,AUTO,0.22625151773293814,-0.47394798199335736,1.880745569864909,-0.7064597556988398,0.0005727532940606276,0.0015377340217431386,-35.36245209999999,149.164658,84168.0,13.498502095540365,-27.046169916788738,107.0,112.0,134.0,1.3048209349314372,0.3176666796207428,0.37893251578013104,29.333333333333332,-0.1313638985157013,107.0,1.0,1.0,1.0,1.0,0.0,1500.0,1500.0,1000.0,1500.0,10.0
17:17:13,AUTO,0.22908327976862589,-0.47887320319811505,1.882373849550883,0.1460160513718923,-0.000737660409261783,0.0022837527794763446,-35.3624514,149.16465350000001,84040.0,12.837509791056315,-27.3474178314209,107.0,112.0,134.0,1.31364901860555,0.3346666892369588,0.39179391662279767,29.0,-0.11858457326889038,107.0,1.0,1.0,1.0,1.0,0.0,1500.0,1500.0,1000.0,1500.0,10.0
17:17:14,AUTO,0.20707603792349497,-0.4814799129962921,1.88328222433726,-0.36098405718803406,-0.007050640415400267,0.003813416619474689,-35.36245096666667,149.16465073333333,83963.66666666667,12.48771858215332,-27.498780568440754,107.0,112.0,135.0,1.3177180687586467,0.34933334589004517,0.40459110339482623,29.0,-0.1282799169421196,107.0,1.0,1.0,1.0,1.0,0.0,1500.0,1500.0,1000.0,1500.0,10.0
17:17:15,AUTO,0.2034550060828527,-0.4837545355161031,1.8842893441518147,-0.06669739882151286,-0.0035919665824621916,-0.0021376300137490034,-35.3624499,149.16464563333332,83827.33333333333,12.126512209574381,-27.650405883789062,107.0,112.0,135.0,1.3249153693517048,0.3600000242392222,0.4171021580696106,28.666666666666668,-0.11853575209776561,107.0,1.0,1.0,1.0,1.0,0.0,1500.0,1500.0,1000.0,1500.0,10.0
17:17:16,AUTO,0.22098245471715927,-0.48469874262809753,1.8847972750663757,0.6757152229547501,0.004979168297722936,0.001881544478237629,-35.36244915,149.16464324999998,83766.0,11.979442596435547,-27.710118293762207,107.0,112.0,135.0,1.3259961009025574,0.37050002813339233,0.432317391037941,29.0,-0.12812812626361847,107.0,1.0,1.0,1.0,1.0,0.0,1500.0,1500.0,1000.0,1500.0,10.0
17:17:17,AUTO,0.20987110336621603,-0.48311222592989606,1.883357087771098,0.41723952690760296,0.0002756260025004546,0.0022483247642715773,-35.36244706666667,149.16463806666667,83623.66666666667,12.16892178853353,-27.632718404134113,107.0,112.0,136.0,1.3363183339436848,0.3916666805744171,0.4435124695301056,29.0,-0.12095235536495845,107.0,1.0,1.0,1.0,1.0,0.0,1500.0,1500.0,1000.0,1500.0,10.0
17:17:18,AUTO,0.22758106887340546,-0.48147015273571014,1.8827649354934692,0.5838355869054794,0.009547773748636246,-0.001274145906791091,-35.36244585,149.16463575,83560.0,12.340829849243164,-27.56128692626953,107.0,112.0,136.0,1.339833915233612,0.41300003230571747,0.4579617828130722,29.0,-0.12155156582593918,107.0,1.0,1.0,1.0,1.0,0.0,1500.0,1500.0,1000.0,1500.0,10.0
17:17:19,AUTO,0.221162348985672,-0.47786933183670044,1.881746530532837,0.3337034185727437,0.0005390271544456482,-0.0029510988776261606,-35.3624425,149.16463086666667,83423.33333333333,12.803867022196451,-27.36232630411784,107.0,112.0,137.0,1.3440852562586467,0.4463333487510681,0.4571598172187805,28.333333333333332,-0.10646464427312215,107.0,1.0,1.0,1.0,1.0,0.0,1500.0,1500.0,1000.0,1500.0,10.0
17:17:20,AUTO,0.2402891144156456,-0.47482556104660034,1.881220817565918,0.4807225167751312,0.018447648733854294,0.002740805968642235,-35.36244055,149.1646288,83363.5,13.185432434082031,-27.1911563873291,107.0,112.0,137.0,1.3438231945037842,0.48250001668930054,0.4819679856300354,28.5,-0.12812504917383194,107.0,1.0,1.0,1.0,1.0,0.0,1500.0,1500.0,1000.0,1500.0,10.0
17:17:21,AUTO,0.24772592882315317,-0.4660717348257701,1.8768032391866047,0.5387968868017197,-0.001261629241829117,-0.007239282984907429,-35.36243556666667,149.16462456666667,83220.0,14.216068267822266,-26.696434020996094,107.0,112.0,137.33333333333334,1.3542285362879436,0.5063333511352539,0.476753165324529,28.333333333333332,-0.10314900676409404,107.0,1.0,1.0,1.0,1.0,0.0,1500.0,1500.0,1000.0,1500.0,10.0
17:17:22,AUTO,0.26568709313869476,-0.4619865417480469,1.8756917715072632,0.10507211089134216,0.01801817351952195,-0.0022154818288981915,-35.36243315,149.16462275,83160.0,14.671653747558594,-26.462267875671387,107.0,112.0,138.0,1.3532763719558716,0.5105000138282776,0.49921180307865143,29.0,-0.11555222794413567,107.0,1.0,1.0,1.0,1.0,0.0,1500.0,1500.0,1000.0,1500.0,10.0
17:17:23,AUTO,0.2593783934911092,-0.4566805859406789,1.8743236462275188,0.21592406431833902,-0.0035142324243982634,-0.005959777471919854,-35.36242766666666,149.1646188,83023.0,15.273970286051432,-26.136091868082683,107.0,112.0,138.0,1.3579784631729126,0.5483333667119344,0.4785548547903697,29.0,-0.11356806258360545,107.0,1.0,1.0,1.0,1.0,0.0,1500.0,1500.0,1000.0,1500.0,10.0
17:17:24,AUTO,0.2791420966386795,-0.4538266360759735,1.8740178346633911,1.137847125530243,0.0004497115733101964,-0.0009084937628358603,-35.362424950000005,149.1646171,82964.5,15.575866222381592,-25.96631908416748,107.0,112.0,138.5,1.3559032678604126,0.5710000097751617,0.4780452996492386,29.0,-0.11233187466859818,107.0,1.0,1.0,1.0,1.0,0.0,1500.0,1500.0,1000.0,1500.0,10.0
17:17:25,AUTO,0.27342862884203595,-0.44414618611335754,1.870775580406189,-0.5236331820487976,-0.004909721513589223,-0.0032561075252791247,-35.3624188,149.16461336666666,82843.0,16.504005432128906,-25.409644444783527,106.66666666666667,112.66666666666667,139.0,1.3443163633346558,0.550000011920929,0.5016171832879385,28.333333333333332,-0.11856378118197124,107.0,1.0,1.0,1.0,1.0,0.0,1500.0,1500.0,1000.0,1500.0,10.0
17:17:26,AUTO,0.30293725430965424,-0.4402253031730652,1.8693881630897522,1.054506540298462,0.007791876560077071,-0.0075453813769854605,-35.362416100000004,149.1646114,82784.5,16.884323120117188,-25.16909408569336,106.0,113.0,139.0,1.3427245616912842,0.5030000060796738,0.5186048448085785,28.5,-0.11841145902872086,107.0,1.0,1.0,1.0,1.0,0.0,1500.0,1500.0,1000.0,1500.0,10.0
17:17:27,AUTO,0.29561492800712585,-0.4397883315881093,1.868235985438029,0.08796311418215434,-0.00886348425410688,0.001200767233967781,-35.36241166666667,149.1646061,82642.66666666667,16.98077392578125,-25.107611974080402,106.0,113.0,140.0,1.351588487625122,0.4583333631356557,0.5388598044713339,29.0,-0.11195109287897746,107.0,1.0,1.0,1.0,1.0,0.0,1500.0,1500.0,1000.0,1500.0,10.0
17:17:28,AUTO,0.3044172674417496,-0.4430397152900696,1.8687353730201721,0.6193474680185318,0.0006087737856432796,-5.110050551593304e-05,-35.36241035,149.16460335,82580.5,16.67582893371582,-25.303329467773438,106.0,113.0,140.0,1.3529443144798279,0.4580000191926956,0.5434116423130035,29.0,-0.125842846930027,107.0,1.0,1.0,1.0,1.0,0.0,1500.0,1500.0,1000.0,1500.0,10.0
17:17:29,AUTO,0.27724239230155945,-0.45191078384717304,1.870758016904195,0.7348000109195709,-0.00964156041542689,0.01105805222565929,-35.3624081,149.164597,82452.0,15.834184964497885,-25.816099802652996,107.0,113.0,141.0,1.3491992155710857,0.4646666844685872,0.5154326955477396,28.666666666666668,-0.11219289153814316,107.0,1.0,1.0,1.0,1.0,0.0,1500.0,1500.0,1000.0,1500.0,10.0
17:17:30,AUTO,0.2788947522640228,-0.4560176730155945,1.8709818124771118,0.21282744407653809,-0.0014554120134562254,0.005074016225989908,-35.3624071,149.164594,82389.5,15.35961103439331,-26.087565422058105,107.0,113.0,141.0,1.35096675157547,0.46650001406669617,0.5099112093448639,29.0,-0.10584792867302895,107.0,1.0,1.0,1.0,1.0,0.0,1500.0,1500.0,1000.0,1500.0,10.0
17:17:31,AUTO,0.25418493151664734,-0.4651397267977397,1.8740219275156658,0.7913159827391306,-0.007035236340016127,0.008346524943287173,-35.3624053,149.1645874,82256.33333333333,14.430806795756022,-26.587777455647785,107.0,113.0,142.0,1.3514094750086467,0.4603333572546641,0.48991212248802185,28.666666666666668,-0.11378905673821767,107.0,1.0,1.0,1.0,1.0,0.0,1500.0,1500.0,1000.0,1500.0,10.0
17:17:32,AUTO,0.24837280064821243,-0.46779754757881165,1.8747878670692444,-0.40316545590758324,-0.0003127078525722027,0.006658418802544475,-35.36240445,149.1645844,82194.5,14.08142614364624,-26.764345169067383,107.0,113.0,142.0,1.352236270904541,0.458500012755394,0.48628512024879456,29.0,-0.10663841664791107,107.0,1.0,1.0,1.0,1.0,0.0,1500.0,1500.0,1000.0,1500.0,10.0
17:17:33,AUTO,0.23890702426433563,-0.4748142162958781,1.8774386644363403,0.9459170699119568,-0.002208349062129855,0.016712987795472145,-35.362403199999996,149.1645778,82063.0,13.268364906311035,-27.153093338012695,107.0,113.0,143.0,1.3517642815907795,0.4476666847864787,0.4656186004479726,29.0,-0.11544969926277797,107.0,1.0,1.0,1.0,1.0,0.0,1500.0,1500.0,1000.0,1500.0,10.0
17:17:34,AUTO,0.233053058385849,-0.4774274379014969,1.8791962265968323,0.1772952824831009,0.005772871430963278,-0.00015028996858745813,-35.362402700000004,149.16457474999999,81999.0,12.903889656066895,-27.318267822265625,107.0,113.0,143.0,1.3550341725349426,0.44450002908706665,0.4573069363832474,30.0,-0.1148751825094223,107.0,1.0,1.0,1.0,1.0,0.0,1500.0,1500.0,1000.0,1500.0,10.0
17:17:35,AUTO,0.2252450188000997,-0.48111536105473834,1.879834810892741,0.9486072659492493,-0.00037664912330607575,0.0073749950000395375,-35.36240156666667,149.16456846666668,81864.0,12.377168655395508,-27.545631408691406,107.0,113.0,143.66666666666666,1.3577375809351604,0.41433335343996686,0.42884724338849384,29.333333333333332,-0.11866145084301631,107.0,1.0,1.0,1.0,1.0,0.0,1500.0,1500.0,1000.0,1500.0,10.0
17:17:36,AUTO,0.2082340195775032,-0.48201772570610046,1.8800490498542786,-0.7726753950119019,0.005384780932217836,8.776085451245308e-05,-35.36240095,149.1645658,81805.0,12.208173751831055,-27.61668300628662,107.0,113.0,144.0,1.3563622832298279,0.3955000191926956,0.4058443307876587,29.0,-0.09798076748847961,107.0,1.0,1.0,1.0,1.0,0.0,1500.0,1500.0,1000.0,1500.0,10.0
17:17:37,AUTO,0.22270750006039938,-0.48067203164100647,1.880370815594991,0.29840561747550964,0.007226170971989632,-0.0010999367805197835,-35.3623989,149.1645606,81671.0,12.346283594767252,-27.55924415588379,107.0,113.0,144.0,1.3570784330368042,0.3783333400885264,0.38106365005175274,29.0,-0.10733893513679504,107.0,1.0,1.0,1.0,1.0,0.0,1500.0,1500.0,1000.0,1500.0,10.0
17:17:38,AUTO,0.2060595601797104,-0.47934727370738983,1.8796606659889221,-1.0155648291110992,0.0006028094794601202,-0.006832044920884073,-35.36239775,149.1645585,81609.5,12.521284103393555,-27.48507595062256,107.0,113.0,145.0,1.3583788871765137,0.372500017285347,0.37218494713306427,29.0,-0.1152067743241787,107.0,1.0,1.0,1.0,1.0,0.0,1500.0,1500.0,1000.0,1500.0,10.0
17:17:39,AUTO,0.22524257997671762,-0.4771517912546794,1.879011591275533,-0.2114074875911077,0.007129846916844447,0.0016307733797778685,-35.36239476666667,149.1645545,81475.0,12.765779177347818,-27.379297892252605,107.0,113.0,145.0,1.3601220051447551,0.38433335224787396,0.33741228779157,29.0,-0.10937610020240147,107.0,1.0,1.0,1.0,1.0,0.0,1500.0,1500.0,1000.0,1500.0,10.0
17:17:40,AUTO,0.2159218117594719,-0.4747757464647293,1.877752423286438,-0.5236659422516823,0.0015673644375056028,-0.009209547541104257,-35.362393100000006,149.16455305,81416.5,13.070400714874268,-27.243597984313965,107.0,113.0,145.0,1.3580785989761353,0.41050001978874207,0.31718674302101135,28.5,-0.106930922716856,107.0,1.0,1.0,1.0,1.0,0.0,1500.0,1500.0,1000.0,1500.0,10.0
17:17:41,AUTO,0.23133616149425507,-0.4683993359406789,1.8760923544565837,-0.8192071318626404,0.010636781497548023,-0.007773832185193896,-35.36238843333333,149.16455076666668,81291.33333333333,13.828694979349772,-26.88764762878418,107.0,113.0,146.0,1.350649396578471,0.4476666947205861,0.2989504138628642,28.666666666666668,-0.11656756202379863,107.0,1.0,1.0,1.0,1.0,0.0,1500.0,1500.0,1000.0,1500.0,10.0
17:17:42,AUTO,0.24917499721050262,-0.46473680436611176,1.8748052716255188,0.6240103542804718,-0.005173760931938887,-0.00887090340256691,-35.3623861,149.16455005,81232.0,14.265807151794434,-26.671896934509277,107.0,113.0,146.0,1.3495727181434631,0.44600002467632294,0.2770364582538605,28.5,-0.10865365713834763,107.0,1.0,1.0,1.0,1.0,0.0,1500.0,1500.0,1000.0,1500.0,10.0
17:17:43,AUTO,0.2556784351666768,-0.4568062126636505,1.8719026645024617,-0.29556509852409363,-0.0026948306864748397,-0.0013530895424385865,-35.36238083333333,149.1645488,81096.33333333333,15.178461074829102,-26.189125696818035,107.0,113.0,146.0,1.3527799050013225,0.4126666883627574,0.2662460406621297,28.666666666666668,-0.1065357302625974,107.0,1.0,1.0,1.0,1.0,0.0,1500.0,1500.0,1000.0,1500.0,10.0
17:17:44,AUTO,0.28504563868045807,-0.45269449055194855,1.8708170056343079,1.042779803276062,0.007812665775418282,-0.012061933986842632,-35.36237855,149.1645483,81033.0,15.618363380432129,-25.941554069519043,107.0,113.0,146.0,1.3560473322868347,0.3720000088214874,0.2735143005847931,29.0,-0.11872837692499161,107.0,1.0,1.0,1.0,1.0,0.0,1500.0,1500.0,1000.0,1500.0,10.0
17:17:45,AUTO,0.27601956327756244,-0.44961726665496826,1.8694377342859905,0.37009016672770184,-0.0030090090973923602,0.0036311986235280833,-35.36237416666666,149.1645473,80898.66666666667,15.94878355662028,-25.749138514200848,107.0,113.0,147.0,1.35717769463857,0.31800001859664917,0.24853738645712534,29.0,-0.11126164098580678,107.0,1.0,1.0,1.0,1.0,0.0,1500.0,1500.0,1000.0,1500.0,10.0
17:17:46,AUTO,0.2904265373945236,-0.4488861858844757,1.869304358959198,0.6990728378295898,0.0035199022386223078,0.0024303195532411337,-35.3623724,149.16454670000002,80836.5,16.00221061706543,-25.71757984161377,107.0,113.0,147.0,1.3591503500938416,0.29350000619888306,0.250869058072567,29.0,-0.11537129059433937,107.0,1.0,1.0,1.0,1.0,0.0,1500.0,1500.0,1000.0,1500.0,10.0
17:17:47,AUTO,0.28761571645736694,-0.44959882895151776,1.868722637494405,0.7454333106676737,-0.0025424499375124774,0.005905531152772407,-35.362369199999996,149.1645454,80703.0,15.954852422078451,-25.745543162027996,107.0,114.0,147.0,1.3597688674926758,0.22666667898495993,0.22309756775697073,29.0,-0.10957007110118866,107.0,1.0,1.0,1.0,1.0,0.0,1500.0,1500.0,1000.0,1500.0,10.0
17:17:48,AUTO,0.2697650343179703,-0.45206886529922485,1.8695127964019775,-0.843104213476181,0.004113133996725082,0.007999204797670245,-35.3623681,149.16454464999998,80640.5,15.726865768432617,-25.87932300567627,107.0,114.0,147.0,1.3616772294044495,0.20750000327825546,0.21553867310285568,29.0,-0.10440629348158836,107.0,1.0,1.0,1.0,1.0,0.0,1500.0,1500.0,1000.0,1500.0,10.0
17:17:49,AUTO,0.26127083599567413,-0.45967058340708417,1.870911995569865,-0.18825884660085043,-0.0014602990510563056,0.0023459080451478562,-35.362366200000004,149.16454273333332,80507.0,14.956267674763998,-26.310229619344074,107.0,114.0,147.0,1.3625210920969646,0.1983333428700765,0.1789130320151647,29.0,-0.09866254528363545,107.0,1.0,1.0,1.0,1.0,0.0,1500.0,1500.0,1000.0,1500.0,10.0
17:17:50,AUTO,0.24827662110328674,-0.4627956300973892,1.8721064329147339,0.03372684121131897,-0.014933799393475056,0.0013976602349430323,-35.36236545,149.16454185,80448.5,14.622588634490967,-26.488000869750977,107.0,114.0,147.0,1.3607836365699768,0.20600000768899918,0.1754797399044037,29.0,-0.10383760929107666,107.0,1.0,1.0,1.0,1.0,0.0,1500.0,1500.0,1000.0,1500.0,10.0
17:17:51,AUTO,0.23579802612463632,-0.4672110875447591,1.8738502264022827,-0.6826698929071426,-0.0025300984270870686,0.00172587635461241,-35.362363800000004,149.16453979999997,80310.33333333333,14.15291659037272,-26.729150772094727,107.0,114.0,148.0,1.3664697011311848,0.18466667334238687,0.1854685495297114,29.333333333333332,-0.10754963755607605,107.0,1.0,1.0,1.0,1.0,0.0,1500.0,1500.0,1000.0,1500.0,10.0
17:17:52,AUTO,0.2582459896802902,-0.4679677188396454,1.8735714554786682,1.0690783858299255,-0.0029426005203276873,-0.0045071152271702886,-35.362363200000004,149.1645388,80251.0,14.054986476898193,-26.778057098388672,107.0,114.0,148.0,1.3649511337280273,0.17000000923871994,0.18959063291549683,29.5,-0.10434320941567421,107.0,1.0,1.0,1.0,1.0,0.0,1500.0,1500.0,1000.0,1500.0,10.0
17:17:53,AUTO,0.2340763956308365,-0.470880647500356,1.8743574619293213,0.04816277200977007,-0.00645116592446963,0.005272163078188896,-35.36236303333334,149.16453606666667,80112.66666666667,13.755281766255697,-26.924558639526367,107.0,114.0,148.0,1.3710058530171711,0.23333334426085153,0.19709540406862894,29.666666666666668,-0.1083628386259079,107.0,1.0,1.0,1.0,1.0,0.0,1500.0,1500.0,1000.0,1500.0,10.0
